{
"dre":[
 {
  "nom": "ZENDE",
  "depart": "A32 BERTOUA",
  "tension": 17,
  "type": "H61",
  "puissance": 25,
  "regime": "x",
  "code": "x",
  "phase": "MONO",
  "longitude": "13.00633646",
  "latitude": "4.08046740"
 },
 {
  "nom": "BASE AERIENNE",
  "depart": "D11 BERTOUA",
  "tension": 15,
  "type": "H61",
  "puissance": 160,
  "regime": "PUBLIC",
  "code": "x",
  "phase": "TRI",
  "longitude": "13.73161074",
  "latitude": "4.55638465"
 },
 {
  "nom": "BASE MILITAIRE",
  "depart": "D11 BERTOUA",
  "tension": 15,
  "type": "H61",
  "puissance": 160,
  "regime": "PUBLIC",
  "code": "x",
  "phase": "TRI",
  "longitude": "13.73175496",
  "latitude": "4.54761663"
 },
 {
  "nom": "BLESSING KANO",
  "depart": "D11 BERTOUA",
  "tension": 15,
  "type": "H61",
  "puissance": 100,
  "regime": "x",
  "code": "x",
  "phase": "TRI",
  "longitude": "13.72675991",
  "latitude": "4.58566505"
 },
 {
  "nom": "TONGRELO",
  "depart": "A32 BERTOUA",
  "tension": 17,
  "type": "H61",
  "puissance": 25,
  "regime": "PUBLIC",
  "code": "x",
  "phase": "MONO",
  "longitude": "13.53064357",
  "latitude": "4.35518359"
 },
 {
  "nom": "CAMTEL 1",
  "depart": "D11 BERTOUA",
  "tension": 15,
  "type": "H61",
  "puissance": 100,
  "regime": "x",
  "code": "x",
  "phase": "TRI",
  "longitude": "13.68472397",
  "latitude": "4.57766661"
 },
 {
  "nom": "TOTAL",
  "depart": "A32 BERTOUA",
  "tension": 30,
  "type": "H61",
  "puissance": 100,
  "regime": "x",
  "code": "x",
  "phase": "TRI",
  "longitude": "13.61168918",
  "latitude": "4.53092422"
 },
 {
  "nom": "CAMTEL MOKOLO",
  "depart": "D11 BERTOUA",
  "tension": 15,
  "type": "H61",
  "puissance": 160,
  "regime": "x",
  "code": "x",
  "phase": "TRI",
  "longitude": "13.68406703",
  "latitude": "4.58427656"
 },
 {
  "nom": "Carrefour ENIA",
  "depart": "D11 BERTOUA",
  "tension": 15,
  "type": "H61",
  "puissance": 160,
  "regime": "PUBLIC",
  "code": "x",
  "phase": "TRI",
  "longitude": "13.70686830",
  "latitude": "4.57943998"
 },
 {
  "nom": "TCHOUKOUNDJI",
  "depart": "A32 BERTOUA",
  "tension": 17,
  "type": "H61",
  "puissance": 25,
  "regime": "x",
  "code": "x",
  "phase": "MONO",
  "longitude": "13.11034135",
  "latitude": "4.07647705"
 },
 {
  "nom": "SOUS PREFECTURE ENGOSSAS",
  "depart": "A32 BERTOUA",
  "tension": 17,
  "type": "H61",
  "puissance": 25,
  "regime": "x",
  "code": "x",
  "phase": "MONO",
  "longitude": "12.98398786",
  "latitude": "4.08569091"
 },
 {
  "nom": "SOURIS",
  "depart": "D31 ABONG MBANG",
  "tension": 30,
  "type": "H61",
  "puissance": 250,
  "regime": "PUBLIC",
  "code": "x",
  "phase": "TRI",
  "longitude": "13.17117592",
  "latitude": "3.98764689"
 },
 {
  "nom": "SIMEYON",
  "depart": "A32 BERTOUA",
  "tension": 17,
  "type": "H61",
  "puissance": 25,
  "regime": "x",
  "code": "x",
  "phase": "MONO",
  "longitude": "13.57881054",
  "latitude": "4.22432938"
 },
 {
  "nom": "RESIDENCE DU SOLEIL BANGOFIT",
  "depart": "A32 BERTOUA",
  "tension": 17,
  "type": "H61",
  "puissance": 25,
  "regime": "x",
  "code": "x",
  "phase": "MONO",
  "longitude": "13.10304525",
  "latitude": "4.01248516"
 },
 {
  "nom": "ETA",
  "depart": "D31 ABONG MBANG",
  "tension": 30,
  "type": "H61",
  "puissance": 160,
  "regime": "PUBLIC",
  "code": "x",
  "phase": "TRI",
  "longitude": "13.18528953",
  "latitude": "3.97661792"
 },
 {
  "nom": "MBAM EWONDO",
  "depart": "D31 ABONG MBANG",
  "tension": 30,
  "type": "H61",
  "puissance": 250,
  "regime": "PUBLIC",
  "code": "x",
  "phase": "TRI",
  "longitude": "13.17620337",
  "latitude": "3.98584167"
 },
 {
  "nom": "PTT BENT",
  "depart": "A32 BERTOUA",
  "tension": 17,
  "type": "H61",
  "puissance": 25,
  "regime": "x",
  "code": "x",
  "phase": "MONO",
  "longitude": "13.32336120",
  "latitude": "4.16862867"
 },
 {
  "nom": "PRISON",
  "depart": "D31 ABONG MBANG",
  "tension": 30,
  "type": "H61",
  "puissance": 160,
  "regime": "PUBLIC",
  "code": "x",
  "phase": "TRI",
  "longitude": "13.18757619",
  "latitude": "3.98181359"
 },
 {
  "nom": "CDE",
  "depart": "D11 BERTOUA",
  "tension": 15,
  "type": "H59",
  "puissance": 400,
  "regime": "PRIVE",
  "code": "x",
  "phase": "TRI",
  "longitude": "13.69221502",
  "latitude": "4.57869498"
 },
 {
  "nom": "PETIT POL",
  "depart": "A32 BERTOUA",
  "tension": 17,
  "type": "H61",
  "puissance": 25,
  "regime": "PUBLIC",
  "code": "x",
  "phase": "MONO",
  "longitude": "13.56072793",
  "latitude": "4.23540505"
 },
 {
  "nom": "PETIT BONANDO",
  "depart": "A32 BERTOUA",
  "tension": 17,
  "type": "H61",
  "puissance": 25,
  "regime": "PUBLIC",
  "code": "x",
  "phase": "MONO",
  "longitude": "13.26833757",
  "latitude": "4.11702743"
 },
 {
  "nom": "DJENDE 2",
  "depart": "A32 BERTOUA",
  "tension": 17,
  "type": "H61",
  "puissance": 25,
  "regime": "PUBLIC",
  "code": "x",
  "phase": "MONO",
  "longitude": "13.21517022",
  "latitude": "4.06788602"
 },
 {
  "nom": "PESAGE BONIS",
  "depart": "A32 BERTOUA",
  "tension": 17,
  "type": "H61",
  "puissance": 25,
  "regime": "PRIVE",
  "code": "x",
  "phase": "MONO",
  "longitude": "13.61370889",
  "latitude": "4.53373643"
 },
 {
  "nom": "PAKI 1",
  "depart": "A32 BERTOUA",
  "tension": 17,
  "type": "H61",
  "puissance": 25,
  "regime": "x",
  "code": "x",
  "phase": "MONO",
  "longitude": "13.42012335",
  "latitude": "4.21821370"
 },
 {
  "nom": "ORANGE NKOUM",
  "depart": "A32 BERTOUA",
  "tension": 17,
  "type": "H61",
  "puissance": 25,
  "regime": "PRIVE",
  "code": "x",
  "phase": "MONO",
  "longitude": "13.29214630",
  "latitude": "4.16537841"
 },
 {
  "nom": "ORANGE MAMPANG",
  "depart": "D31 ABONG MBANG",
  "tension": 17,
  "type": "H61",
  "puissance": 25,
  "regime": "PRIVE",
  "code": "x",
  "phase": "MONO",
  "longitude": "13.18031883",
  "latitude": "3.99949386"
 },
 {
  "nom": "ORANGE DIMAKO",
  "depart": "A32 BERTOUA",
  "tension": 17,
  "type": "H61",
  "puissance": 25,
  "regime": "PRIVE",
  "code": "x",
  "phase": "MONO",
  "longitude": "13.58670522",
  "latitude": "4.37634276"
 },
 {
  "nom": "OLA",
  "depart": "A32 BERTOUA",
  "tension": 30,
  "type": "H61",
  "puissance": 100,
  "regime": "PRIVE",
  "code": "x",
  "phase": "TRI",
  "longitude": "13.61923479",
  "latitude": "4.54329406"
 },
 {
  "nom": "CENAJES",
  "depart": "D11 BERTOUA",
  "tension": 15,
  "type": "H61",
  "puissance": 160,
  "regime": "PUBLIC",
  "code": "x",
  "phase": "TRI",
  "longitude": "13.69632501",
  "latitude": "4.57696832"
 },
 {
  "nom": "NKOUM VILLAGE",
  "depart": "A32 BERTOUA",
  "tension": 17,
  "type": "H61",
  "puissance": 25,
  "regime": "PUBLIC",
  "code": "x",
  "phase": "MONO",
  "longitude": "13.29391451",
  "latitude": "4.16470222"
 },
 {
  "nom": "NKOLESSONG",
  "depart": "A32 BERTOUA",
  "tension": 17,
  "type": "H61",
  "puissance": 25,
  "regime": "PUBLIC",
  "code": "x",
  "phase": "MONO",
  "longitude": "13.48261873",
  "latitude": "4.25216686"
 },
 {
  "nom": "NKOL MVOLAN",
  "depart": "A32 BERTOUA",
  "tension": 17,
  "type": "H61",
  "puissance": 25,
  "regime": "x",
  "code": "x",
  "phase": "MONO",
  "longitude": "13.13005245",
  "latitude": "3.97748836"
 },
 {
  "nom": "LA COLOMBE",
  "depart": "D11 BERTOUA",
  "tension": 15,
  "type": "H61",
  "puissance": 160,
  "regime": "PUBLIC",
  "code": "x",
  "phase": "TRI",
  "longitude": "13.71301706",
  "latitude": "4.57550749"
 },
 {
  "nom": "Visite technique",
  "depart": "A32 BERTOUA",
  "tension": 30,
  "type": "H61",
  "puissance": 160,
  "regime": "PUBLIC",
  "code": "x",
  "phase": "TRI",
  "longitude": "13.63560668",
  "latitude": "4.55529502"
 },
 {
  "nom": "MTN NKOUM",
  "depart": "A32 BERTOUA",
  "tension": 17,
  "type": "H61",
  "puissance": 25,
  "regime": "PRIVE",
  "code": "x",
  "phase": "MONO",
  "longitude": "13.29493336",
  "latitude": "4.16812834"
 },
 {
  "nom": "IHS GRAND PAKI",
  "depart": "A32 BERTOUA",
  "tension": 17,
  "type": "H61",
  "puissance": 25,
  "regime": "PRIVE",
  "code": "x",
  "phase": "MONO",
  "longitude": "13.39950845",
  "latitude": "4.20642895"
 },
 {
  "nom": "IHS DJENDE 2",
  "depart": "A32 BERTOUA",
  "tension": 17,
  "type": "H61",
  "puissance": 25,
  "regime": "PRIVE",
  "code": "x",
  "phase": "MONO",
  "longitude": "13.21704497",
  "latitude": "4.07268496"
 },
 {
  "nom": "MPOUDOU",
  "depart": "A32 BERTOUA",
  "tension": 17,
  "type": "H61",
  "puissance": 25,
  "regime": "x",
  "code": "x",
  "phase": "MONO",
  "longitude": "13.05430156",
  "latitude": "4.10824688"
 },
 {
  "nom": "MPALAMPOUAM",
  "depart": "A32 BERTOUA",
  "tension": 17,
  "type": "H61",
  "puissance": 25,
  "regime": "x",
  "code": "x",
  "phase": "MONO",
  "longitude": "13.04076936",
  "latitude": "4.10304739"
 },
 {
  "nom": "MOTCHEBOU",
  "depart": "A32 BERTOUA",
  "tension": 30,
  "type": "H61",
  "puissance": 100,
  "regime": "x",
  "code": "x",
  "phase": "TRI",
  "longitude": "13.24008348",
  "latitude": "4.11505143"
 },
 {
  "nom": "COMMISSARIAT MOKOLO 3",
  "depart": "D11 BERTOUA",
  "tension": 15,
  "type": "H61",
  "puissance": 160,
  "regime": "x",
  "code": "x",
  "phase": "TRI",
  "longitude": "13.68006333",
  "latitude": "4.59805837"
 },
 {
  "nom": "MBAMA 1",
  "depart": "A32 BERTOUA",
  "tension": 30,
  "type": "H61",
  "puissance": 100,
  "regime": "PUBLIC",
  "code": "x",
  "phase": "TRI",
  "longitude": "13.44202143",
  "latitude": "4.24418932"
 },
 {
  "nom": "CRTV",
  "depart": "D11 BERTOUA",
  "tension": 15,
  "type": "H59",
  "puissance": 400,
  "regime": "x",
  "code": "x",
  "phase": "TRI",
  "longitude": "13.67517167",
  "latitude": "4.57918997"
 },
 {
  "nom": "MEDIM",
  "depart": "A32 BERTOUA",
  "tension": 17,
  "type": "H61",
  "puissance": 25,
  "regime": "PUBLIC",
  "code": "x",
  "phase": "MONO",
  "longitude": "13.38597667",
  "latitude": "4.20696500"
 },
 {
  "nom": "MBOULE",
  "depart": "D31 ABONG MBANG",
  "tension": 30,
  "type": "H61",
  "puissance": 160,
  "regime": "PUBLIC",
  "code": "x",
  "phase": "TRI",
  "longitude": "13.18039631",
  "latitude": "3.98009193"
 },
 {
  "nom": "EKOMBITIE",
  "depart": "D11 BERTOUA",
  "tension": 15,
  "type": "H61",
  "puissance": 100,
  "regime": "x",
  "code": "x",
  "phase": "TRI",
  "longitude": "13.69206655",
  "latitude": "4.58155178"
 },
 {
  "nom": "MBAMA 2",
  "depart": "A32 BERTOUA",
  "tension": 30,
  "type": "H61",
  "puissance": 160,
  "regime": "PUBLIC",
  "code": "x",
  "phase": "TRI",
  "longitude": "13.43575108",
  "latitude": "4.24617413"
 },
 {
  "nom": "MBALA",
  "depart": "A32 BERTOUA",
  "tension": 17,
  "type": "H61",
  "puissance": 25,
  "regime": "x",
  "code": "x",
  "phase": "MONO",
  "longitude": "13.45811336",
  "latitude": "4.22985997"
 },
 {
  "nom": "SPIRITAINE",
  "depart": "D11 BERTOUA",
  "tension": 15,
  "type": "H61",
  "puissance": 160,
  "regime": "x",
  "code": "x",
  "phase": "TRI",
  "longitude": "13.71801163",
  "latitude": "4.57364664"
 },
 {
  "nom": "MANPANG village",
  "depart": "A32 BERTOUA",
  "tension": 17,
  "type": "H61",
  "puissance": 25,
  "regime": "x",
  "code": "x",
  "phase": "MONO",
  "longitude": "13.17314082",
  "latitude": "4.02694115"
 },
 {
  "nom": "MAMPANG",
  "depart": "A32 BERTOUA",
  "tension": 17,
  "type": "H61",
  "puissance": 25,
  "regime": "PUBLIC",
  "code": "x",
  "phase": "MONO",
  "longitude": "13.17782174",
  "latitude": "4.01102817"
 },
 {
  "nom": "MAIRIE DE DIMAKO",
  "depart": "A32 BERTOUA",
  "tension": 30,
  "type": "H61",
  "puissance": 100,
  "regime": "x",
  "code": "x",
  "phase": "TRI",
  "longitude": "13.57801713",
  "latitude": "4.38181189"
 },
 {
  "nom": "PETIT MARCHE ENIA",
  "depart": "D11 BERTOUA",
  "tension": 15,
  "type": "H61",
  "puissance": 160,
  "regime": "PUBLIC",
  "code": "x",
  "phase": "TRI",
  "longitude": "13.70930664",
  "latitude": "4.57755669"
 },
 {
  "nom": "ENIEG",
  "depart": "D11 BERTOUA",
  "tension": 15,
  "type": "H61",
  "puissance": 160,
  "regime": "x",
  "code": "x",
  "phase": "TRI",
  "longitude": "13.69043168",
  "latitude": "4.58483999"
 },
 {
  "nom": "KANO 2",
  "depart": "D11 BERTOUA",
  "tension": 15,
  "type": "H61",
  "puissance": 160,
  "regime": "PUBLIC",
  "code": "x",
  "phase": "TRI",
  "longitude": "13.71644331",
  "latitude": "4.58231336"
 },
 {
  "nom": "FANGA HOTEL",
  "depart": "D11 BERTOUA",
  "tension": 15,
  "type": "H61",
  "puissance": 400,
  "regime": "PUBLIC",
  "code": "x",
  "phase": "TRI",
  "longitude": "13.67939010",
  "latitude": "4.58444524"
 },
 {
  "nom": "LOUMBOU",
  "depart": "A32 BERTOUA",
  "tension": 17,
  "type": "H61",
  "puissance": 25,
  "regime": "PUBLIC",
  "code": "x",
  "phase": "MONO",
  "longitude": "13.49895893",
  "latitude": "4.25821195"
 },
 {
  "nom": "LONGTIMBI",
  "depart": "A32 BERTOUA",
  "tension": 17,
  "type": "H61",
  "puissance": 25,
  "regime": "PUBLIC",
  "code": "x",
  "phase": "MONO",
  "longitude": "13.61784951",
  "latitude": "4.44482477"
 },
 {
  "nom": "GAIKADA 2",
  "depart": "D11 BERTOUA",
  "tension": 15,
  "type": "H61",
  "puissance": 160,
  "regime": "PUBLIC",
  "code": "x",
  "phase": "TRI",
  "longitude": "13.70324502",
  "latitude": "4.56768667"
 },
 {
  "nom": "KOUEN",
  "depart": "A32 BERTOUA",
  "tension": 17,
  "type": "H61",
  "puissance": 25,
  "regime": "x",
  "code": "x",
  "phase": "MONO",
  "longitude": "13.50763251",
  "latitude": "4.32099983"
 },
 {
  "nom": "KOBILA",
  "depart": "A32 BERTOUA",
  "tension": 17,
  "type": "H61",
  "puissance": 25,
  "regime": "PUBLIC",
  "code": "x",
  "phase": "MONO",
  "longitude": "13.46938444",
  "latitude": "4.24672878"
 },
 {
  "nom": "KEMPONG",
  "depart": "A32 BERTOUA",
  "tension": 17,
  "type": "H61",
  "puissance": 25,
  "regime": "PUBLIC",
  "code": "x",
  "phase": "MONO",
  "longitude": "13.51545741",
  "latitude": "4.25634685"
 },
 {
  "nom": "Gendarmerie",
  "depart": "D11 BERTOUA",
  "tension": 15,
  "type": "H61",
  "puissance": 160,
  "regime": "PUBLIC",
  "code": "x",
  "phase": "TRI",
  "longitude": "13.68588473",
  "latitude": "4.57818088"
 },
 {
  "nom": "SOEURS DE KAIGAMA",
  "depart": "A32 BERTOUA",
  "tension": 17,
  "type": "H61",
  "puissance": 25,
  "regime": "PRIVE",
  "code": "x",
  "phase": "MONO",
  "longitude": "13.62165944",
  "latitude": "4.45928583"
 },
 {
  "nom": "KAIGAMA Antenne",
  "depart": "A32 BERTOUA",
  "tension": 17,
  "type": "H61",
  "puissance": 25,
  "regime": "PRIVE",
  "code": "x",
  "phase": "MONO",
  "longitude": "13.62203042",
  "latitude": "4.47296512"
 },
 {
  "nom": "HOPITAL REGIONAL",
  "depart": "D11 BERTOUA",
  "tension": 15,
  "type": "H59",
  "puissance": 160,
  "regime": "x",
  "code": "x",
  "phase": "TRI",
  "longitude": "13.69716084",
  "latitude": "4.57292765"
 },
 {
  "nom": "CAMWATER DIMAKO",
  "depart": "A32 BERTOUA",
  "tension": 30,
  "type": "H61",
  "puissance": 160,
  "regime": "PRIVE",
  "code": "x",
  "phase": "TRI",
  "longitude": "13.56734497",
  "latitude": "4.38293663"
 },
 {
  "nom": "eveche",
  "depart": "A32 BERTOUA",
  "tension": 30,
  "type": "H61",
  "puissance": 100,
  "regime": "PUBLIC",
  "code": "x",
  "phase": "TRI",
  "longitude": "13.44212401",
  "latitude": "4.24606700"
 },
 {
  "nom": "INCONNU",
  "depart": "A32 BERTOUA",
  "tension": 17,
  "type": "H61",
  "puissance": 25,
  "regime": "x",
  "code": "x",
  "phase": "MONO",
  "longitude": "13.11896948",
  "latitude": "3.97584066"
 },
 {
  "nom": "HOTEL DE FINANCE",
  "depart": "D11 BERTOUA",
  "tension": 15,
  "type": "H59",
  "puissance": 400,
  "regime": "x",
  "code": "x",
  "phase": "TRI",
  "longitude": "13.67595000",
  "latitude": "4.57833503"
 },
 {
  "nom": "HOTEL MANSA",
  "depart": "D11 BERTOUA",
  "tension": 15,
  "type": "H59",
  "puissance": 160,
  "regime": "x",
  "code": "x",
  "phase": "TRI",
  "longitude": "13.68315498",
  "latitude": "4.58849832"
 },
 {
  "nom": "IRAC (BETON)",
  "depart": "D11 BERTOUA",
  "tension": 15,
  "type": "H61",
  "puissance": 160,
  "regime": "x",
  "code": "x",
  "phase": "TRI",
  "longitude": "13.71143346",
  "latitude": "4.58059460"
 },
 {
  "nom": "ITALIE",
  "depart": "D11 BERTOUA",
  "tension": 15,
  "type": "H61",
  "puissance": 100,
  "regime": "PUBLIC",
  "code": "x",
  "phase": "TRI",
  "longitude": "13.69675630",
  "latitude": "4.57245505"
 },
 {
  "nom": "KANO 1",
  "depart": "D11 BERTOUA",
  "tension": 15,
  "type": "H61",
  "puissance": 250,
  "regime": "PUBLIC",
  "code": "x",
  "phase": "TRI",
  "longitude": "13.71772501",
  "latitude": "4.58248836"
 },
 {
  "nom": "GREEN OIL 2",
  "depart": "A32 BERTOUA",
  "tension": 30,
  "type": "H61",
  "puissance": 100,
  "regime": "x",
  "code": "x",
  "phase": "TRI",
  "longitude": "13.62107183",
  "latitude": "4.55068005"
 },
 {
  "nom": "GREEN OIL 1",
  "depart": "A32 BERTOUA",
  "tension": 30,
  "type": "H61",
  "puissance": 100,
  "regime": "PRIVE",
  "code": "x",
  "phase": "TRI",
  "longitude": "13.62756168",
  "latitude": "4.55378822"
 },
 {
  "nom": "GRAND POL",
  "depart": "A32 BERTOUA",
  "tension": 17,
  "type": "H61",
  "puissance": 25,
  "regime": "x",
  "code": "x",
  "phase": "MONO",
  "longitude": "13.60021397",
  "latitude": "4.21337185"
 },
 {
  "nom": "GRAND PAKI",
  "depart": "A32 BERTOUA",
  "tension": 17,
  "type": "H61",
  "puissance": 25,
  "regime": "x",
  "code": "x",
  "phase": "MONO",
  "longitude": "13.40667860",
  "latitude": "4.21350648"
 },
 {
  "nom": "GOUMBEGERON",
  "depart": "A32 BERTOUA",
  "tension": 17,
  "type": "H61",
  "puissance": 25,
  "regime": "PUBLIC",
  "code": "x",
  "phase": "MONO",
  "longitude": "13.52657334",
  "latitude": "4.24875831"
 },
 {
  "nom": "KANO 2",
  "depart": "D11 BERTOUA",
  "tension": 15,
  "type": "H61",
  "puissance": 160,
  "regime": "PUBLIC",
  "code": "x",
  "phase": "TRI",
  "longitude": "13.72578449",
  "latitude": "4.58848574"
 },
 {
  "nom": "Kpoklota",
  "depart": "D11 BERTOUA",
  "tension": 15,
  "type": "H61",
  "puissance": 160,
  "regime": "PUBLIC",
  "code": "x",
  "phase": "TRI",
  "longitude": "13.69215163",
  "latitude": "4.58758333"
 },
 {
  "nom": "MADOUMA",
  "depart": "D31 ABONG MBANG",
  "tension": 30,
  "type": "H61",
  "puissance": 160,
  "regime": "PUBLIC",
  "code": "x",
  "phase": "TRI",
  "longitude": "13.20188888",
  "latitude": "3.96978774"
 },
 {
  "nom": "EP ABONG BANG",
  "depart": "D31 ABONG MBANG",
  "tension": 30,
  "type": "H61",
  "puissance": 100,
  "regime": "PUBLIC",
  "code": "x",
  "phase": "TRI",
  "longitude": "13.18156209",
  "latitude": "3.98496962"
 },
 {
  "nom": "Kpoklota chez le maire",
  "depart": "D11 BERTOUA",
  "tension": 15,
  "type": "H61",
  "puissance": 100,
  "regime": "PUBLIC",
  "code": "x",
  "phase": "TRI",
  "longitude": "13.70314169",
  "latitude": "4.59328002"
 },
 {
  "nom": "KPOKLOTA VILLAGE",
  "depart": "D11 BERTOUA",
  "tension": 15,
  "type": "H61",
  "puissance": 320,
  "regime": "PUBLIC",
  "code": "x",
  "phase": "TRI",
  "longitude": "13.69664273",
  "latitude": "4.58979641"
 },
 {
  "nom": "LYCEE BILINGUE",
  "depart": "D11 BERTOUA",
  "tension": 15,
  "type": "H61",
  "puissance": 250,
  "regime": "x",
  "code": "x",
  "phase": "TRI",
  "longitude": "13.70225836",
  "latitude": "4.57849002"
 },
 {
  "nom": "ENGOSSAS",
  "depart": "A32 BERTOUA",
  "tension": 17,
  "type": "H61",
  "puissance": 25,
  "regime": "x",
  "code": "x",
  "phase": "MONO",
  "longitude": "12.98838859",
  "latitude": "4.07600742"
 },
 {
  "nom": "LYCEE MOKOLO 4",
  "depart": "D11 BERTOUA",
  "tension": 15,
  "type": "H61",
  "puissance": 160,
  "regime": "x",
  "code": "x",
  "phase": "TRI",
  "longitude": "13.67682669",
  "latitude": "4.60718168"
 },
 {
  "nom": "EDZE",
  "depart": "A32 BERTOUA",
  "tension": 17,
  "type": "H61",
  "puissance": 25,
  "regime": "x",
  "code": "x",
  "phase": "MONO",
  "longitude": "13.13998002",
  "latitude": "3.97949099"
 },
 {
  "nom": "DOUME CENTRE",
  "depart": "A32 BERTOUA",
  "tension": 30,
  "type": "H61",
  "puissance": 100,
  "regime": "x",
  "code": "x",
  "phase": "TRI",
  "longitude": "13.45562834",
  "latitude": "4.24025830"
 },
 {
  "nom": "DJENASSOUME",
  "depart": "A32 BERTOUA",
  "tension": 17,
  "type": "H61",
  "puissance": 25,
  "regime": "x",
  "code": "x",
  "phase": "MONO",
  "longitude": "13.11845081",
  "latitude": "3.95706175"
 },
 {
  "nom": "DJANDJA",
  "depart": "A32 BERTOUA",
  "tension": 17,
  "type": "H61",
  "puissance": 25,
  "regime": "x",
  "code": "x",
  "phase": "MONO",
  "longitude": "13.51053829",
  "latitude": "4.30207336"
 },
 {
  "nom": "DJAGLASSI",
  "depart": "A32 BERTOUA",
  "tension": 17,
  "type": "H61",
  "puissance": 25,
  "regime": "PUBLIC",
  "code": "x",
  "phase": "MONO",
  "longitude": "13.28416580",
  "latitude": "4.15502559"
 },
 {
  "nom": "Camp Nord",
  "depart": "A32 BERTOUA",
  "tension": 30,
  "type": "H61",
  "puissance": 160,
  "regime": "PUBLIC",
  "code": "x",
  "phase": "TRI",
  "longitude": "13.57277906",
  "latitude": "4.38188237"
 },
 {
  "nom": "Source Dimako",
  "depart": "A32 BERTOUA",
  "tension": 30,
  "type": "H61",
  "puissance": 160,
  "regime": "PUBLIC",
  "code": "x",
  "phase": "TRI",
  "longitude": "13.57916153",
  "latitude": "4.38602035"
 },
 {
  "nom": "CRTV",
  "depart": "D31 ABONG MBANG",
  "tension": 30,
  "type": "H61",
  "puissance": 160,
  "regime": "PUBLIC",
  "code": "x",
  "phase": "TRI",
  "longitude": "13.17630054",
  "latitude": "3.98006939"
 },
 {
  "nom": "LYCEE TECHNIQUE KANO",
  "depart": "D11 BERTOUA",
  "tension": 15,
  "type": "H59",
  "puissance": 400,
  "regime": "PRIVE",
  "code": "x",
  "phase": "TRI",
  "longitude": "13.71605167",
  "latitude": "4.58131667"
 },
 {
  "nom": "LYCEE TECHNIQUE BERTOUA",
  "depart": "D11 BERTOUA",
  "tension": 15,
  "type": "H61",
  "puissance": 100,
  "regime": "x",
  "code": "x",
  "phase": "TRI",
  "longitude": "13.68742504",
  "latitude": "4.58623833"
 },
 {
  "nom": "CFAO MAMPANG",
  "depart": "D31 ABONG MBANG",
  "tension": 17,
  "type": "H61",
  "puissance": 25,
  "regime": "PRIVE",
  "code": "x",
  "phase": "MONO",
  "longitude": "13.17968487",
  "latitude": "3.99960015"
 },
 {
  "nom": "MARCHE 1",
  "depart": "D11 BERTOUA",
  "tension": 15,
  "type": "H61",
  "puissance": 250,
  "regime": "x",
  "code": "x",
  "phase": "TRI",
  "longitude": "13.68657682",
  "latitude": "4.57402289"
 },
 {
  "nom": "CAMWATER",
  "depart": "D31 ABONG MBANG",
  "tension": 30,
  "type": "H61",
  "puissance": 100,
  "regime": "PRIVE",
  "code": "x",
  "phase": "TRI",
  "longitude": "13.18645589",
  "latitude": "3.98608277"
 },
 {
  "nom": "Marche Moderne Mokolo",
  "depart": "D11 BERTOUA",
  "tension": 15,
  "type": "H61",
  "puissance": 160,
  "regime": "PUBLIC",
  "code": "x",
  "phase": "TRI",
  "longitude": "13.67679498",
  "latitude": "4.59368835"
 },
 {
  "nom": "MBESSO NGARRI",
  "depart": "D11 BERTOUA",
  "tension": 15,
  "type": "H61",
  "puissance": 100,
  "regime": "PRIVE",
  "code": "x",
  "phase": "TRI",
  "longitude": "13.72522166",
  "latitude": "4.58436502"
 },
 {
  "nom": "BRIGADE DOUME",
  "depart": "A32 BERTOUA",
  "tension": 30,
  "type": "H61",
  "puissance": 100,
  "regime": "PUBLIC",
  "code": "x",
  "phase": "TRI",
  "longitude": "13.47780929",
  "latitude": "4.25187851"
 },
 {
  "nom": "BOUMPIAL",
  "depart": "A32 BERTOUA",
  "tension": 17,
  "type": "H61",
  "puissance": 25,
  "regime": "PUBLIC",
  "code": "x",
  "phase": "MONO",
  "longitude": "13.35582838",
  "latitude": "4.19471002"
 },
 {
  "nom": "BONIS",
  "depart": "A32 BERTOUA",
  "tension": 17,
  "type": "H61",
  "puissance": 25,
  "regime": "PUBLIC",
  "code": "x",
  "phase": "MONO",
  "longitude": "13.61744780",
  "latitude": "4.54526992"
 },
 {
  "nom": "MBODOBO",
  "depart": "D11 BERTOUA",
  "tension": 15,
  "type": "H61",
  "puissance": 250,
  "regime": "x",
  "code": "x",
  "phase": "TRI",
  "longitude": "13.68250358",
  "latitude": "4.57609216"
 },
 {
  "nom": "BINDANANG",
  "depart": "A32 BERTOUA",
  "tension": 17,
  "type": "H61",
  "puissance": 25,
  "regime": "x",
  "code": "x",
  "phase": "MONO",
  "longitude": "13.08918577",
  "latitude": "4.01786439"
 },
 {
  "nom": "BEULE",
  "depart": "A32 BERTOUA",
  "tension": 17,
  "type": "H61",
  "puissance": 25,
  "regime": "x",
  "code": "x",
  "phase": "MONO",
  "longitude": "13.55853260",
  "latitude": "4.37899665"
 },
 {
  "nom": "BENT",
  "depart": "A32 BERTOUA",
  "tension": 17,
  "type": "H61",
  "puissance": 25,
  "regime": "PUBLIC",
  "code": "x",
  "phase": "MONO",
  "longitude": "13.33757151",
  "latitude": "4.17509271"
 },
 {
  "nom": "BONANDO",
  "depart": "A32 BERTOUA",
  "tension": 17,
  "type": "H61",
  "puissance": 25,
  "regime": "PUBLIC",
  "code": "x",
  "phase": "MONO",
  "longitude": "13.27244878",
  "latitude": "4.12708824"
 },
 {
  "nom": "BAKTALA",
  "depart": "A32 BERTOUA",
  "tension": 17,
  "type": "H61",
  "puissance": 25,
  "regime": "PUBLIC",
  "code": "x",
  "phase": "MONO",
  "longitude": "13.60798778",
  "latitude": "4.42934875"
 },
 {
  "nom": "BAGOLOUL",
  "depart": "A32 BERTOUA",
  "tension": 17,
  "type": "H61",
  "puissance": 25,
  "regime": "x",
  "code": "x",
  "phase": "MONO",
  "longitude": "13.13237745",
  "latitude": "4.06369049"
 },
 {
  "nom": "BAGBESSE",
  "depart": "A32 BERTOUA",
  "tension": 17,
  "type": "H61",
  "puissance": 25,
  "regime": "x",
  "code": "x",
  "phase": "MONO",
  "longitude": "13.01880208",
  "latitude": "4.08352908"
 },
 {
  "nom": "Lycee technique",
  "depart": "D31 ABONG MBANG",
  "tension": 30,
  "type": "H59",
  "puissance": 50,
  "regime": "PUBLIC",
  "code": "x",
  "phase": "TRI",
  "longitude": "13.20205864",
  "latitude": "3.97073723"
 },
 {
  "nom": "AYENE",
  "depart": "A32 BERTOUA",
  "tension": 30,
  "type": "H61",
  "puissance": 100,
  "regime": "x",
  "code": "x",
  "phase": "TRI",
  "longitude": "13.45206667",
  "latitude": "4.23328164"
 },
 {
  "nom": "AKOM",
  "depart": "A32 BERTOUA",
  "tension": 17,
  "type": "H61",
  "puissance": 25,
  "regime": "x",
  "code": "x",
  "phase": "MONO",
  "longitude": "13.09634134",
  "latitude": "4.07900169"
 },
 {
  "nom": "ADOUMA",
  "depart": "A32 BERTOUA",
  "tension": 17,
  "type": "H61",
  "puissance": 25,
  "regime": "x",
  "code": "x",
  "phase": "MONO",
  "longitude": "13.11517123",
  "latitude": "4.00134095"
 },
 {
  "nom": "ABONIS",
  "depart": "A32 BERTOUA",
  "tension": 17,
  "type": "H61",
  "puissance": 25,
  "regime": "x",
  "code": "x",
  "phase": "MONO",
  "longitude": "13.06366596",
  "latitude": "4.10146442"
 },
 {
  "nom": "ABONG DOUM",
  "depart": "A32 BERTOUA",
  "tension": 17,
  "type": "H61",
  "puissance": 25,
  "regime": "x",
  "code": "x",
  "phase": "MONO",
  "longitude": "13.15483602",
  "latitude": "3.99089041"
 },
 {
  "nom": "MERE POULE",
  "depart": "D11 BERTOUA",
  "tension": 15,
  "type": "H61",
  "puissance": 160,
  "regime": "x",
  "code": "x",
  "phase": "TRI",
  "longitude": "13.69960168",
  "latitude": "4.57491165"
 },
 {
  "nom": "MOKOLO 2",
  "depart": "D11 BERTOUA",
  "tension": 15,
  "type": "H61",
  "puissance": 160,
  "regime": "x",
  "code": "x",
  "phase": "TRI",
  "longitude": "13.68092667",
  "latitude": "4.58934170"
 },
 {
  "nom": "Mokolo dernier poteau",
  "depart": "D11 BERTOUA",
  "tension": 15,
  "type": "H61",
  "puissance": 160,
  "regime": "PUBLIC",
  "code": "x",
  "phase": "TRI",
  "longitude": "13.68070497",
  "latitude": "4.59437170"
 },
 {
  "nom": "MOUNOU Chez le commissaire",
  "depart": "D11 BERTOUA",
  "tension": 15,
  "type": "H61",
  "puissance": 250,
  "regime": "PUBLIC",
  "code": "x",
  "phase": "TRI",
  "longitude": "13.69419349",
  "latitude": "4.56650653"
 },
 {
  "nom": "NGAIKADA 1",
  "depart": "D11 BERTOUA",
  "tension": 15,
  "type": "H61",
  "puissance": 160,
  "regime": "PUBLIC",
  "code": "x",
  "phase": "TRI",
  "longitude": "13.70140469",
  "latitude": "4.56877209"
 },
 {
  "nom": "NGAIKADA 3",
  "depart": "D11 BERTOUA",
  "tension": 15,
  "type": "H61",
  "puissance": 160,
  "regime": "PUBLIC",
  "code": "x",
  "phase": "TRI",
  "longitude": "13.70701469",
  "latitude": "4.56481503"
 },
 {
  "nom": "Ntidamba apres le lac",
  "depart": "D11 BERTOUA",
  "tension": 15,
  "type": "H61",
  "puissance": 160,
  "regime": "PUBLIC",
  "code": "x",
  "phase": "TRI",
  "longitude": "13.70406836",
  "latitude": "4.58616163"
 },
 {
  "nom": "NTOUNGOU",
  "depart": "D11 BERTOUA",
  "tension": 15,
  "type": "H61",
  "puissance": 50,
  "regime": "x",
  "code": "x",
  "phase": "TRI",
  "longitude": "13.72060002",
  "latitude": "4.56172342"
 },
 {
  "nom": "NTOUNGOU 1",
  "depart": "D11 BERTOUA",
  "tension": 15,
  "type": "H61",
  "puissance": 160,
  "regime": "PUBLIC",
  "code": "x",
  "phase": "TRI",
  "longitude": "13.72136497",
  "latitude": "4.57064832"
 },
 {
  "nom": "NTOUNGOU 2",
  "depart": "D11 BERTOUA",
  "tension": 15,
  "type": "H61",
  "puissance": 160,
  "regime": "PUBLIC",
  "code": "x",
  "phase": "TRI",
  "longitude": "13.72026997",
  "latitude": "4.56811000"
 },
 {
  "nom": "Pharmacie Galien",
  "depart": "D11 BERTOUA",
  "tension": 15,
  "type": "H61",
  "puissance": 160,
  "regime": "PRIVE",
  "code": "x",
  "phase": "TRI",
  "longitude": "13.68629533",
  "latitude": "4.57740338"
 },
 {
  "nom": "PODCAO 1",
  "depart": "D11 BERTOUA",
  "tension": 15,
  "type": "H61",
  "puissance": 160,
  "regime": "PUBLIC",
  "code": "x",
  "phase": "TRI",
  "longitude": "13.69677333",
  "latitude": "4.56023662"
 },
 {
  "nom": "PODCAO2",
  "depart": "D11 BERTOUA",
  "tension": 15,
  "type": "H61",
  "puissance": 160,
  "regime": "PUBLIC",
  "code": "x",
  "phase": "TRI",
  "longitude": "13.69765000",
  "latitude": "4.56107834"
 },
 {
  "nom": "PRESIDENCE 1",
  "depart": "D11 BERTOUA",
  "tension": 15,
  "type": "H61",
  "puissance": 250,
  "regime": "PUBLIC",
  "code": "x",
  "phase": "TRI",
  "longitude": "13.68629661",
  "latitude": "4.58211927"
 },
 {
  "nom": "Presidence 2",
  "depart": "D11 BERTOUA",
  "tension": 15,
  "type": "H61",
  "puissance": 160,
  "regime": "PUBLIC",
  "code": "x",
  "phase": "TRI",
  "longitude": "13.68589829",
  "latitude": "4.58231196"
 },
 {
  "nom": "RADIO EMISSION",
  "depart": "D11 BERTOUA",
  "tension": 15,
  "type": "H59",
  "puissance": 160,
  "regime": "PUBLIC",
  "code": "x",
  "phase": "TRI",
  "longitude": "13.68805997",
  "latitude": "4.59378497"
 },
 {
  "nom": "TINDAMBA 1",
  "depart": "D11 BERTOUA",
  "tension": 15,
  "type": "H61",
  "puissance": 160,
  "regime": "x",
  "code": "x",
  "phase": "TRI",
  "longitude": "13.69771358",
  "latitude": "4.58052685"
 },
 {
  "nom": "TINDAMBA 2",
  "depart": "D11 BERTOUA",
  "tension": 15,
  "type": "H61",
  "puissance": 160,
  "regime": "x",
  "code": "x",
  "phase": "TRI",
  "longitude": "13.69859322",
  "latitude": "4.58019475"
 },
 {
  "nom": "TOTAL KANO",
  "depart": "D11 BERTOUA",
  "tension": 15,
  "type": "H61",
  "puissance": 100,
  "regime": "x",
  "code": "x",
  "phase": "TRI",
  "longitude": "13.72137116",
  "latitude": "4.58360081"
 },
 {
  "nom": "Tradex Yademe",
  "depart": "D11 BERTOUA",
  "tension": 15,
  "type": "H61",
  "puissance": 50,
  "regime": "PUBLIC",
  "code": "x",
  "phase": "TRI",
  "longitude": "13.68966500",
  "latitude": "4.57772000"
 },
 {
  "nom": "Centre medical d'arrondissement de Dimako",
  "depart": "A32 BERTOUA",
  "tension": 30,
  "type": "H61",
  "puissance": 100,
  "regime": "PRIVE",
  "code": "x",
  "phase": "TRI",
  "longitude": "13.56795003",
  "latitude": "4.37753500"
 },
 {
  "nom": "Eniet de bonis",
  "depart": "A32 BERTOUA",
  "tension": 30,
  "type": "H61",
  "puissance": 160,
  "regime": "PUBLIC",
  "code": "x",
  "phase": "TRI",
  "longitude": "13.62675666",
  "latitude": "4.53314167"
 },
 {
  "nom": "Antenne IHS KOUEN",
  "depart": "A32 BERTOUA",
  "tension": 17,
  "type": "H61",
  "puissance": 25,
  "regime": "PRIVE",
  "code": "x",
  "phase": "MONO",
  "longitude": "13.50750835",
  "latitude": "4.31235167"
 },
 {
  "nom": "Maire TONGRELO",
  "depart": "A32 BERTOUA",
  "tension": 30,
  "type": "H61",
  "puissance": 100,
  "regime": "PRIVE",
  "code": "x",
  "phase": "TRI",
  "longitude": "13.52261504",
  "latitude": "4.34632332"
 },
 {
  "nom": "Camp militaire",
  "depart": "A32 BERTOUA",
  "tension": 30,
  "type": "H61",
  "puissance": 100,
  "regime": "PRIVE",
  "code": "x",
  "phase": "TRI",
  "longitude": "13.24163499",
  "latitude": "4.11514166"
 },
 {
  "nom": "Mono pour alimentation condo",
  "depart": "A32 BERTOUA",
  "tension": 17,
  "type": "H61",
  "puissance": 25,
  "regime": "PRIVE",
  "code": "x",
  "phase": "MONO",
  "longitude": "13.49379833",
  "latitude": "4.25558165"
 },
 {
  "nom": "Feliaquesie",
  "depart": "D31 ABONG MBANG",
  "tension": 30,
  "type": "H59",
  "puissance": 400,
  "regime": "PRIVE",
  "code": "x",
  "phase": "TRI",
  "longitude": "13.17828998",
  "latitude": "4.00403834"
 },
 {
  "nom": "Moutchouboum Village",
  "depart": "A32 BERTOUA",
  "tension": 30,
  "type": "H61",
  "puissance": 50,
  "regime": "PUBLIC",
  "code": "x",
  "phase": "TRI",
  "longitude": "13.23953671",
  "latitude": "4.11421664"
 },
 {
  "nom": "Covagro industries sarl",
  "depart": "D31 ABONG MBANG",
  "tension": 30,
  "type": "H59",
  "puissance": 250,
  "regime": "PRIVE",
  "code": "x",
  "phase": "TRI",
  "longitude": "13.17861428",
  "latitude": "4.00261395"
 },
 {
  "nom": "Total Abong MBANG",
  "depart": "D31 ABONG MBANG",
  "tension": 30,
  "type": "H61",
  "puissance": 100,
  "regime": "PRIVE",
  "code": "x",
  "phase": "TRI",
  "longitude": "13.17941334",
  "latitude": "3.98638833"
 },
 {
  "nom": "Congelcam",
  "depart": "D31 ABONG MBANG",
  "tension": 30,
  "type": "H61",
  "puissance": 50,
  "regime": "PUBLIC",
  "code": "x",
  "phase": "TRI",
  "longitude": "13.17853334",
  "latitude": "3.98683837"
 },
 {
  "nom": "Scierie STBC",
  "depart": "D31 ABONG MBANG",
  "tension": 30,
  "type": "H59",
  "puissance": 630,
  "regime": "PRIVE",
  "code": "x",
  "phase": "TRI",
  "longitude": "13.14741999",
  "latitude": "3.98806666"
 },
 {
  "nom": "DINO ET FILS",
  "depart": "D31 ABONG MBANG",
  "tension": 30,
  "type": "H59",
  "puissance": 1260,
  "regime": "PRIVE",
  "code": "x",
  "phase": "TRI",
  "longitude": "13.15719329",
  "latitude": "3.98575338"
 },
 {
  "nom": "Forestiere camerounaises",
  "depart": "D31 ABONG MBANG",
  "tension": 30,
  "type": "H59",
  "puissance": 630,
  "regime": "PRIVE",
  "code": "x",
  "phase": "TRI",
  "longitude": "13.15206331",
  "latitude": "3.99339497"
 },
 {
  "nom": "Deroulage STBC",
  "depart": "D31 ABONG MBANG",
  "tension": 30,
  "type": "H59",
  "puissance": 630,
  "regime": "PRIVE",
  "code": "x",
  "phase": "TRI",
  "longitude": "13.14916168",
  "latitude": "3.98947331"
 },
 {
  "nom": "BIPONDO 2",
  "depart": "D12 BERTOUA",
  "tension": 15,
  "type": "H61",
  "puissance": 160,
  "regime": "PUBLIC",
  "code": "x",
  "phase": "TRI",
  "longitude": "13.66729610",
  "latitude": "4.59777490"
 },
 {
  "nom": "Camp sic 4",
  "depart": "D12 BERTOUA",
  "tension": 15,
  "type": "H59",
  "puissance": 400,
  "regime": "PUBLIC",
  "code": "x",
  "phase": "TRI",
  "longitude": "13.67093707",
  "latitude": "4.58552022"
 },
 {
  "nom": "BIPONDO 1",
  "depart": "D12 BERTOUA",
  "tension": 15,
  "type": "H61",
  "puissance": 160,
  "regime": "PUBLIC",
  "code": "x",
  "phase": "TRI",
  "longitude": "13.66806899",
  "latitude": "4.59631638"
 },
 {
  "nom": "Poste de LIVRAISON Hopital de reference",
  "depart": "D12 BERTOUA",
  "tension": 15,
  "type": "H59",
  "puissance": 1600,
  "regime": "PUBLIC",
  "code": "x",
  "phase": "TRI",
  "longitude": "13.67228749",
  "latitude": "4.58468624"
 },
 {
  "nom": "Camp sic 3",
  "depart": "D12 BERTOUA",
  "tension": 15,
  "type": "H59",
  "puissance": 400,
  "regime": "PUBLIC",
  "code": "x",
  "phase": "TRI",
  "longitude": "13.67168102",
  "latitude": "4.58642037"
 },
 {
  "nom": "Immeuble kenlack pierre",
  "depart": "D12 BERTOUA",
  "tension": 15,
  "type": "H61",
  "puissance": 100,
  "regime": "PRIVE",
  "code": "x",
  "phase": "TRI",
  "longitude": "13.65910976",
  "latitude": "4.57247563"
 },
 {
  "nom": "Station ola",
  "depart": "D12 BERTOUA",
  "tension": 15,
  "type": "H61",
  "puissance": 100,
  "regime": "PRIVE",
  "code": "x",
  "phase": "TRI",
  "longitude": "13.65022364",
  "latitude": "4.56613288"
 },
 {
  "nom": "Station axx",
  "depart": "D12 BERTOUA",
  "tension": 15,
  "type": "H61",
  "puissance": 50,
  "regime": "PRIVE",
  "code": "x",
  "phase": "TRI",
  "longitude": "13.65488411",
  "latitude": "4.57009173"
 },
 {
  "nom": "Cami Toyota",
  "depart": "D12 BERTOUA",
  "tension": 15,
  "type": "H61",
  "puissance": 160,
  "regime": "PRIVE",
  "code": "x",
  "phase": "TRI",
  "longitude": "13.64380685",
  "latitude": "4.56230959"
 },
 {
  "nom": "Grand seminaire",
  "depart": "D12 BERTOUA",
  "tension": 15,
  "type": "PYLOTIS",
  "puissance": 250,
  "regime": "PUBLIC",
  "code": "x",
  "phase": "TRI",
  "longitude": "13.64560285",
  "latitude": "4.56391815"
 },
 {
  "nom": "Societe Adama",
  "depart": "D12 BERTOUA",
  "tension": 15,
  "type": "H61",
  "puissance": 100,
  "regime": "PRIVE",
  "code": "x",
  "phase": "TRI",
  "longitude": "13.64570238",
  "latitude": "4.55644748"
 },
 {
  "nom": "SCI HOKA",
  "depart": "D12 BERTOUA",
  "tension": 15,
  "type": "H61",
  "puissance": 100,
  "regime": "PRIVE",
  "code": "x",
  "phase": "TRI",
  "longitude": "13.64478287",
  "latitude": "4.55974102"
 },
 {
  "nom": "SCTW",
  "depart": "D12 BERTOUA",
  "tension": 15,
  "type": "H59",
  "puissance": 400,
  "regime": "PRIVE",
  "code": "x",
  "phase": "TRI",
  "longitude": "13.64419895",
  "latitude": "4.55628598"
 },
 {
  "nom": "SCBD",
  "depart": "D12 BERTOUA",
  "tension": 15,
  "type": "H61",
  "puissance": 160,
  "regime": "PRIVE",
  "code": "x",
  "phase": "TRI",
  "longitude": "13.64509525",
  "latitude": "4.55610136"
 },
 {
  "nom": "Soticam",
  "depart": "D12 BERTOUA",
  "tension": 15,
  "type": "H61",
  "puissance": 160,
  "regime": "PRIVE",
  "code": "x",
  "phase": "TRI",
  "longitude": "13.64206140",
  "latitude": "4.56213289"
 },
 {
  "nom": "Tradex koume bonis",
  "depart": "D12 BERTOUA",
  "tension": 15,
  "type": "H61",
  "puissance": 100,
  "regime": "PRIVE",
  "code": "x",
  "phase": "TRI",
  "longitude": "13.64306194",
  "latitude": "4.56123659"
 },
 {
  "nom": "HCR",
  "depart": "D12 BERTOUA",
  "tension": 15,
  "type": "H61",
  "puissance": 160,
  "regime": "PRIVE",
  "code": "x",
  "phase": "TRI",
  "longitude": "13.66877147",
  "latitude": "4.57312031"
 },
 {
  "nom": "CMCI",
  "depart": "D12 BERTOUA",
  "tension": 15,
  "type": "H61",
  "puissance": 160,
  "regime": "PRIVE",
  "code": "x",
  "phase": "TRI",
  "longitude": "13.63243143",
  "latitude": "4.56212013"
 },
 {
  "nom": "Immeuble Kapi",
  "depart": "D12 BERTOUA",
  "tension": 15,
  "type": "H61",
  "puissance": 100,
  "regime": "PRIVE",
  "code": "x",
  "phase": "TRI",
  "longitude": "13.66956898",
  "latitude": "4.57473291"
 },
 {
  "nom": "IHS nkolbikon",
  "depart": "D12 BERTOUA",
  "tension": 15,
  "type": "H61",
  "puissance": 160,
  "regime": "MIXTE",
  "code": "x",
  "phase": "TRI",
  "longitude": "13.66876600",
  "latitude": "4.58331746"
 },
 {
  "nom": "Congelcam",
  "depart": "D12 BERTOUA",
  "tension": 15,
  "type": "H61",
  "puissance": 100,
  "regime": "PUBLIC",
  "code": "x",
  "phase": "TRI",
  "longitude": "13.67482496",
  "latitude": "4.57474812"
 },
 {
  "nom": "Nyangaza 3",
  "depart": "D12 BERTOUA",
  "tension": 15,
  "type": "H61",
  "puissance": 160,
  "regime": "PUBLIC",
  "code": "x",
  "phase": "TRI",
  "longitude": "13.67054737",
  "latitude": "4.56507286"
 },
 {
  "nom": "Orange bodomo",
  "depart": "D12 BERTOUA",
  "tension": 15,
  "type": "H61",
  "puissance": 50,
  "regime": "PRIVE",
  "code": "x",
  "phase": "TRI",
  "longitude": "13.68042018",
  "latitude": "4.57496674"
 },
 {
  "nom": "Total bodomo",
  "depart": "D12 BERTOUA",
  "tension": 15,
  "type": "H61",
  "puissance": 100,
  "regime": "PRIVE",
  "code": "x",
  "phase": "TRI",
  "longitude": "13.67961777",
  "latitude": "4.57531048"
 },
 {
  "nom": "Congelcam marche",
  "depart": "D12 BERTOUA",
  "tension": 15,
  "type": "H61",
  "puissance": 100,
  "regime": "PRIVE",
  "code": "x",
  "phase": "TRI",
  "longitude": "13.68389766",
  "latitude": "4.57589908"
 },
 {
  "nom": "MINSEC",
  "depart": "D12 BERTOUA",
  "tension": 15,
  "type": "H61",
  "puissance": 100,
  "regime": "PRIVE",
  "code": "x",
  "phase": "TRI",
  "longitude": "13.67757440",
  "latitude": "4.57706456"
 },
 {
  "nom": "Data center",
  "depart": "D12 BERTOUA",
  "tension": 15,
  "type": "H61",
  "puissance": 100,
  "regime": "PRIVE",
  "code": "x",
  "phase": "TRI",
  "longitude": "13.68375254",
  "latitude": "4.57668340"
 },
 {
  "nom": "Tian Chin",
  "depart": "D12 BERTOUA",
  "tension": 15,
  "type": "H59",
  "puissance": 1000,
  "regime": "PRIVE",
  "code": "x",
  "phase": "TRI",
  "longitude": "13.64591573",
  "latitude": "4.55856063"
 },
 {
  "nom": "Carrefour Terrestra NKOLBIKON",
  "depart": "D12 BERTOUA",
  "tension": 15,
  "type": "H61",
  "puissance": 160,
  "regime": "PUBLIC",
  "code": "x",
  "phase": "TRI",
  "longitude": "13.66500553",
  "latitude": "4.57505911"
 },
 {
  "nom": "EMAMA 1 sous prefecture",
  "depart": "D12 BERTOUA",
  "tension": 15,
  "type": "H61",
  "puissance": 160,
  "regime": "PUBLIC",
  "code": "x",
  "phase": "TRI",
  "longitude": "13.65957258",
  "latitude": "4.57215106"
 },
 {
  "nom": "NYANGAZA 2",
  "depart": "D12 BERTOUA",
  "tension": 15,
  "type": "H61",
  "puissance": 160,
  "regime": "PUBLIC",
  "code": "x",
  "phase": "TRI",
  "longitude": "13.67161233",
  "latitude": "4.56917625"
 },
 {
  "nom": "EMAMA 3",
  "depart": "D12 BERTOUA",
  "tension": 15,
  "type": "H61",
  "puissance": 160,
  "regime": "PUBLIC",
  "code": "x",
  "phase": "TRI",
  "longitude": "13.65588255",
  "latitude": "4.57022364"
 },
 {
  "nom": "IMMEUBLE DABADJI",
  "depart": "D12 BERTOUA",
  "tension": 15,
  "type": "H59",
  "puissance": 400,
  "regime": "MIXTE",
  "code": "x",
  "phase": "TRI",
  "longitude": "13.68195636",
  "latitude": "4.57495973"
 },
 {
  "nom": "FACE a FACE",
  "depart": "D12 BERTOUA",
  "tension": 15,
  "type": "H61",
  "puissance": 160,
  "regime": "x",
  "code": "x",
  "phase": "TRI",
  "longitude": "13.67710111",
  "latitude": "4.57421475"
 },
 {
  "nom": "AFRIQUE AUBERGE",
  "depart": "D12 BERTOUA",
  "tension": 15,
  "type": "H61",
  "puissance": 160,
  "regime": "PUBLIC",
  "code": "x",
  "phase": "TRI",
  "longitude": "13.68074321",
  "latitude": "4.57340716"
 },
 {
  "nom": "AFRILAND",
  "depart": "D12 BERTOUA",
  "tension": 15,
  "type": "H61",
  "puissance": 160,
  "regime": "PRIVE",
  "code": "x",
  "phase": "TRI",
  "longitude": "13.68092053",
  "latitude": "4.57555378"
 },
 {
  "nom": "Madagascar 2",
  "depart": "D12 BERTOUA",
  "tension": 15,
  "type": "H61",
  "puissance": 160,
  "regime": "PUBLIC",
  "code": "x",
  "phase": "TRI",
  "longitude": "13.65131140",
  "latitude": "4.56184907"
 },
 {
  "nom": "CRTV",
  "depart": "D12 BERTOUA",
  "tension": 15,
  "type": "H59",
  "puissance": 100,
  "regime": "PRIVE",
  "code": "x",
  "phase": "TRI",
  "longitude": "13.66350120",
  "latitude": "4.58060581"
 },
 {
  "nom": "Mie Doree",
  "depart": "D12 BERTOUA",
  "tension": 15,
  "type": "H61",
  "puissance": 169,
  "regime": "PUBLIC",
  "code": "x",
  "phase": "TRI",
  "longitude": "13.67616903",
  "latitude": "4.57498602"
 },
 {
  "nom": "Bodomo",
  "depart": "D12 BERTOUA",
  "tension": 15,
  "type": "H61",
  "puissance": 250,
  "regime": "PUBLIC",
  "code": "x",
  "phase": "TRI",
  "longitude": "13.68004262",
  "latitude": "4.57723124"
 },
 {
  "nom": "SAOCAM",
  "depart": "D12 BERTOUA",
  "tension": 15,
  "type": "H61",
  "puissance": 160,
  "regime": "PUBLIC",
  "code": "x",
  "phase": "TRI",
  "longitude": "13.65244183",
  "latitude": "4.56752215"
 },
 {
  "nom": "ANTENNE Tele",
  "depart": "D12 BERTOUA",
  "tension": 15,
  "type": "H61",
  "puissance": 160,
  "regime": "PUBLIC",
  "code": "x",
  "phase": "TRI",
  "longitude": "13.66420613",
  "latitude": "4.58092400"
 },
 {
  "nom": "BLESSING Nkolbikon",
  "depart": "D12 BERTOUA",
  "tension": 15,
  "type": "H61",
  "puissance": 160,
  "regime": "MIXTE",
  "code": "x",
  "phase": "TRI",
  "longitude": "13.66314218",
  "latitude": "4.57392225"
 },
 {
  "nom": "TIGAZA GMI 2",
  "depart": "D12 BERTOUA",
  "tension": 15,
  "type": "H61",
  "puissance": 320,
  "regime": "PUBLIC",
  "code": "x",
  "phase": "TRI",
  "longitude": "13.67534140",
  "latitude": "4.56408478"
 },
 {
  "nom": "BICEC",
  "depart": "D12 BERTOUA",
  "tension": 15,
  "type": "H61",
  "puissance": 100,
  "regime": "PRIVE",
  "code": "x",
  "phase": "TRI",
  "longitude": "13.68225671",
  "latitude": "4.57253894"
 },
 {
  "nom": "Sonel Direction regional Est",
  "depart": "D12 BERTOUA",
  "tension": 15,
  "type": "H61",
  "puissance": 100,
  "regime": "PRIVE",
  "code": "x",
  "phase": "TRI",
  "longitude": "13.67261992",
  "latitude": "4.57431901"
 },
 {
  "nom": "TIGAZA GMI 1",
  "depart": "D12 BERTOUA",
  "tension": 15,
  "type": "H61",
  "puissance": 160,
  "regime": "PUBLIC",
  "code": "x",
  "phase": "TRI",
  "longitude": "13.67694266",
  "latitude": "4.56625603"
 },
 {
  "nom": "Himalaya",
  "depart": "D12 BERTOUA",
  "tension": 15,
  "type": "H61",
  "puissance": 160,
  "regime": "PUBLIC",
  "code": "x",
  "phase": "TRI",
  "longitude": "13.66571337",
  "latitude": "4.58101892"
 },
 {
  "nom": "BERTOUA 2",
  "depart": "D12 BERTOUA",
  "tension": 15,
  "type": "PYLOTIS",
  "puissance": 400,
  "regime": "PUBLIC",
  "code": "x",
  "phase": "TRI",
  "longitude": "13.68748689",
  "latitude": "4.55826896"
 },
 {
  "nom": "Emama 2",
  "depart": "D12 BERTOUA",
  "tension": 15,
  "type": "H61",
  "puissance": 160,
  "regime": "PUBLIC",
  "code": "x",
  "phase": "TRI",
  "longitude": "13.65772358",
  "latitude": "4.57207899"
 },
 {
  "nom": "Agence voyage Nkolbikon",
  "depart": "D12 BERTOUA",
  "tension": 15,
  "type": "H61",
  "puissance": 160,
  "regime": "PUBLIC",
  "code": "x",
  "phase": "TRI",
  "longitude": "13.67049835",
  "latitude": "4.57448427"
 },
 {
  "nom": "Tyoro",
  "depart": "D12 BERTOUA",
  "tension": 15,
  "type": "H61",
  "puissance": 160,
  "regime": "PUBLIC",
  "code": "x",
  "phase": "TRI",
  "longitude": "13.66436703",
  "latitude": "4.56948882"
 },
 {
  "nom": "COMPLEXE SPORTIF",
  "depart": "D12 BERTOUA",
  "tension": 15,
  "type": "H61",
  "puissance": 160,
  "regime": "PUBLIC",
  "code": "x",
  "phase": "TRI",
  "longitude": "13.67884877",
  "latitude": "4.57091218"
 },
 {
  "nom": "Belgocam",
  "depart": "D12 BERTOUA",
  "tension": 15,
  "type": "H61",
  "puissance": 100,
  "regime": "PUBLIC",
  "code": "x",
  "phase": "TRI",
  "longitude": "13.66810537",
  "latitude": "4.57465807"
 },
 {
  "nom": "HAOUSSA 1",
  "depart": "D12 BERTOUA",
  "tension": 15,
  "type": "H61",
  "puissance": 160,
  "regime": "PUBLIC",
  "code": "x",
  "phase": "TRI",
  "longitude": "13.68395298",
  "latitude": "4.56718227"
 },
 {
  "nom": "CFE",
  "depart": "D12 BERTOUA",
  "tension": 15,
  "type": "H61",
  "puissance": 100,
  "regime": "PUBLIC",
  "code": "x",
  "phase": "TRI",
  "longitude": "13.64737483",
  "latitude": "4.56462910"
 },
 {
  "nom": "DEPOT BRASSERIE",
  "depart": "D12 BERTOUA",
  "tension": 15,
  "type": "H61",
  "puissance": 160,
  "regime": "PUBLIC",
  "code": "x",
  "phase": "TRI",
  "longitude": "13.67259571",
  "latitude": "4.57308043"
 },
 {
  "nom": "MADAGASCAR 1",
  "depart": "D12 BERTOUA",
  "tension": 15,
  "type": "H61",
  "puissance": 160,
  "regime": "PUBLIC",
  "code": "x",
  "phase": "TRI",
  "longitude": "13.64938179",
  "latitude": "4.56247053"
 },
 {
  "nom": "NYANGAZA 1",
  "depart": "D12 BERTOUA",
  "tension": 15,
  "type": "H61",
  "puissance": 160,
  "regime": "PUBLIC",
  "code": "x",
  "phase": "TRI",
  "longitude": "13.67017682",
  "latitude": "4.56916209"
 },
 {
  "nom": "HAOUSSA 2",
  "depart": "D12 BERTOUA",
  "tension": 15,
  "type": "H61",
  "puissance": 250,
  "regime": "PUBLIC",
  "code": "x",
  "phase": "TRI",
  "longitude": "13.68411720",
  "latitude": "4.56738470"
 },
 {
  "nom": "TIGAZA PLATEAU",
  "depart": "D12 BERTOUA",
  "tension": 15,
  "type": "H61",
  "puissance": 160,
  "regime": "PUBLIC",
  "code": "x",
  "phase": "TRI",
  "longitude": "13.67958037",
  "latitude": "4.56780337"
 },
 {
  "nom": "MARCHE 2",
  "depart": "D12 BERTOUA",
  "tension": 15,
  "type": "PYLOTIS",
  "puissance": 400,
  "regime": "PUBLIC",
  "code": "x",
  "phase": "TRI",
  "longitude": "13.68657682",
  "latitude": "4.57402289"
 },
 {
  "nom": "MARCHE 1",
  "depart": "D12 BERTOUA",
  "tension": 15,
  "type": "H61",
  "puissance": 160,
  "regime": "PUBLIC",
  "code": "x",
  "phase": "TRI",
  "longitude": "13.68594961",
  "latitude": "4.57444529"
 },
 {
  "nom": "Activo Kano",
  "depart": "D31 BATOURI",
  "tension": 17,
  "type": "H61",
  "puissance": 25,
  "regime": "PRIVE",
  "code": "x",
  "phase": "MONO",
  "longitude": "13.71838682",
  "latitude": "4.58939801"
 },
 {
  "nom": "SOCAPEC",
  "depart": "D31 BATOURI",
  "tension": 30,
  "type": "H61",
  "puissance": 100,
  "regime": "PRIVE",
  "code": "x",
  "phase": "TRI",
  "longitude": "13.75392169",
  "latitude": "4.59562469"
 },
 {
  "nom": "IHS MANDJOU",
  "depart": "D31 BATOURI",
  "tension": 17,
  "type": "H61",
  "puissance": 25,
  "regime": "PRIVE",
  "code": "x",
  "phase": "MONO",
  "longitude": "13.73571465",
  "latitude": "4.59050193"
 },
 {
  "nom": "IHS NGAMBOULA",
  "depart": "D31 BATOURI",
  "tension": 17,
  "type": "H61",
  "puissance": 25,
  "regime": "PRIVE",
  "code": "x",
  "phase": "MONO",
  "longitude": "13.83121818",
  "latitude": "4.56599192"
 },
 {
  "nom": "Orange BINDJA",
  "depart": "D31 BATOURI",
  "tension": 17,
  "type": "H61",
  "puissance": 25,
  "regime": "PRIVE",
  "code": "x",
  "phase": "MONO",
  "longitude": "13.74412503",
  "latitude": "4.58230228"
 },
 {
  "nom": "IHS BAKOMBO",
  "depart": "D31 BATOURI",
  "tension": 17,
  "type": "H61",
  "puissance": 25,
  "regime": "PRIVE",
  "code": "x",
  "phase": "MONO",
  "longitude": "14.22748231",
  "latitude": "4.40877860"
 },
 {
  "nom": "Hotel Sylviane",
  "depart": "D31 BATOURI",
  "tension": 30,
  "type": "H61",
  "puissance": 160,
  "regime": "PRIVE",
  "code": "x",
  "phase": "TRI",
  "longitude": "14.37723750",
  "latitude": "4.45326581"
 },
 {
  "nom": "SULEMANOU SOBI",
  "depart": "D31 BATOURI",
  "tension": 30,
  "type": "H61",
  "puissance": 160,
  "regime": "MIXTE",
  "code": "x",
  "phase": "TRI",
  "longitude": "14.31018710",
  "latitude": "4.41003401"
 },
 {
  "nom": "MOKOLO HAOUSSA 1 et 2",
  "depart": "D31 BATOURI",
  "tension": 30,
  "type": "H61",
  "puissance": 320,
  "regime": "PUBLIC",
  "code": "x",
  "phase": "TRI",
  "longitude": "14.36953061",
  "latitude": "4.43296071"
 },
 {
  "nom": "INCONNU",
  "depart": "D31 BATOURI",
  "tension": 17,
  "type": "H61",
  "puissance": 25,
  "regime": "x",
  "code": "x",
  "phase": "MONO",
  "longitude": "14.07280653",
  "latitude": "4.30575471"
 },
 {
  "nom": "PTT TIKONDI",
  "depart": "D31 BATOURI",
  "tension": 17,
  "type": "H61",
  "puissance": 25,
  "regime": "PRIVE",
  "code": "x",
  "phase": "MONO",
  "longitude": "14.12723382",
  "latitude": "4.46660040"
 },
 {
  "nom": "Bocom",
  "depart": "D31 BATOURI",
  "tension": 30,
  "type": "H61",
  "puissance": 160,
  "regime": "PUBLIC",
  "code": "x",
  "phase": "TRI",
  "longitude": "14.37457573",
  "latitude": "4.45325723"
 },
 {
  "nom": "BODOSSI",
  "depart": "D31 BATOURI",
  "tension": 30,
  "type": "H61",
  "puissance": 160,
  "regime": "PUBLIC",
  "code": "x",
  "phase": "TRI",
  "longitude": "14.36111581",
  "latitude": "4.43818462"
 },
 {
  "nom": "MBAKOMBO",
  "depart": "D31 BATOURI",
  "tension": 17,
  "type": "H61",
  "puissance": 25,
  "regime": "x",
  "code": "x",
  "phase": "MONO",
  "longitude": "13.70499407",
  "latitude": "4.62549882"
 },
 {
  "nom": "Ngangua",
  "depart": "D31 BATOURI",
  "tension": 30,
  "type": "H61",
  "puissance": 160,
  "regime": "PUBLIC",
  "code": "x",
  "phase": "TRI",
  "longitude": "13.68820465",
  "latitude": "4.60752025"
 },
 {
  "nom": "ORANGE KOUBA",
  "depart": "D31 BATOURI",
  "tension": 17,
  "type": "H61",
  "puissance": 25,
  "regime": "x",
  "code": "x",
  "phase": "MONO",
  "longitude": "13.77836223",
  "latitude": "4.63612661"
 },
 {
  "nom": "BANGOU",
  "depart": "D31 BATOURI",
  "tension": 17,
  "type": "H61",
  "puissance": 25,
  "regime": "PUBLIC",
  "code": "x",
  "phase": "MONO",
  "longitude": "14.15385114",
  "latitude": "4.44982376"
 },
 {
  "nom": "SAMBO CHATEAU",
  "depart": "D31 BATOURI",
  "tension": 30,
  "type": "H61",
  "puissance": 160,
  "regime": "PUBLIC",
  "code": "x",
  "phase": "TRI",
  "longitude": "14.34790523",
  "latitude": "4.43120820"
 },
 {
  "nom": "BANDONGOUE",
  "depart": "D31 BATOURI",
  "tension": 17,
  "type": "H61",
  "puissance": 25,
  "regime": "PUBLIC",
  "code": "x",
  "phase": "MONO",
  "longitude": "14.21184431",
  "latitude": "4.40539781"
 },
 {
  "nom": "CDE",
  "depart": "D31 BATOURI",
  "tension": 30,
  "type": "H59",
  "puissance": 250,
  "regime": "PRIVE",
  "code": "x",
  "phase": "TRI",
  "longitude": "14.32607923",
  "latitude": "4.42432106"
 },
 {
  "nom": "BOCOM MANDJOU",
  "depart": "D31 BATOURI",
  "tension": 30,
  "type": "H61",
  "puissance": 100,
  "regime": "PRIVE",
  "code": "x",
  "phase": "TRI",
  "longitude": "13.74528124",
  "latitude": "4.59321520"
 },
 {
  "nom": "ASCENA",
  "depart": "D31 BATOURI",
  "tension": 30,
  "type": "H61",
  "puissance": 160,
  "regime": "PUBLIC",
  "code": "x",
  "phase": "TRI",
  "longitude": "14.36299704",
  "latitude": "4.47176059"
 },
 {
  "nom": "ORANGE KANO",
  "depart": "D31 BATOURI",
  "tension": 17,
  "type": "H61",
  "puissance": 25,
  "regime": "PRIVE",
  "code": "x",
  "phase": "MONO",
  "longitude": "13.72777645",
  "latitude": "4.58794011"
 },
 {
  "nom": "BAZZAMA",
  "depart": "D31 BATOURI",
  "tension": 17,
  "type": "H61",
  "puissance": 25,
  "regime": "PUBLIC",
  "code": "x",
  "phase": "MONO",
  "longitude": "13.88775483",
  "latitude": "4.54178842"
 },
 {
  "nom": "BINDJA",
  "depart": "D31 BATOURI",
  "tension": 30,
  "type": "H61",
  "puissance": 100,
  "regime": "PUBLIC",
  "code": "x",
  "phase": "TRI",
  "longitude": "13.74544599",
  "latitude": "4.58817556"
 },
 {
  "nom": "ADINKOL",
  "depart": "D31 BATOURI",
  "tension": 17,
  "type": "H61",
  "puissance": 25,
  "regime": "x",
  "code": "x",
  "phase": "MONO",
  "longitude": "13.79299183",
  "latitude": "4.66421105"
 },
 {
  "nom": "NGUELEBOK(GENDARMERIE)",
  "depart": "D31 BATOURI",
  "tension": 17,
  "type": "H61",
  "puissance": 25,
  "regime": "x",
  "code": "x",
  "phase": "MONO",
  "longitude": "14.04968324",
  "latitude": "4.27205092"
 },
 {
  "nom": "MDEMBO",
  "depart": "D31 BATOURI",
  "tension": 17,
  "type": "H61",
  "puissance": 25,
  "regime": "PRIVE",
  "code": "x",
  "phase": "MONO",
  "longitude": "13.86121081",
  "latitude": "4.54977578"
 },
 {
  "nom": "TOUKI",
  "depart": "D31 BATOURI",
  "tension": 17,
  "type": "H61",
  "puissance": 25,
  "regime": "PUBLIC",
  "code": "x",
  "phase": "MONO",
  "longitude": "13.95054373",
  "latitude": "4.50862819"
 },
 {
  "nom": "HAOUSSA",
  "depart": "D31 BATOURI",
  "tension": 30,
  "type": "H61",
  "puissance": 100,
  "regime": "PUBLIC",
  "code": "x",
  "phase": "TRI",
  "longitude": "14.36857880",
  "latitude": "4.43087643"
 },
 {
  "nom": "BANDONGUE CARREFOUR",
  "depart": "D31 BATOURI",
  "tension": 17,
  "type": "H61",
  "puissance": 25,
  "regime": "PUBLIC",
  "code": "x",
  "phase": "MONO",
  "longitude": "14.20999593",
  "latitude": "4.40647736"
 },
 {
  "nom": "PESSAGE MANDJOU",
  "depart": "D31 BATOURI",
  "tension": 17,
  "type": "H61",
  "puissance": 25,
  "regime": "PUBLIC",
  "code": "x",
  "phase": "MONO",
  "longitude": "13.73389239",
  "latitude": "4.58929995"
 },
 {
  "nom": "MARCHE",
  "depart": "D31 BATOURI",
  "tension": 30,
  "type": "H61",
  "puissance": 160,
  "regime": "PUBLIC",
  "code": "x",
  "phase": "TRI",
  "longitude": "14.36472607",
  "latitude": "4.43400266"
 },
 {
  "nom": "NKOLBOMO",
  "depart": "D31 BATOURI",
  "tension": 30,
  "type": "H61",
  "puissance": 100,
  "regime": "PRIVE",
  "code": "x",
  "phase": "TRI",
  "longitude": "14.29171285",
  "latitude": "4.40021570"
 },
 {
  "nom": "BAKOMBO VILLAGE",
  "depart": "D31 BATOURI",
  "tension": 17,
  "type": "H61",
  "puissance": 25,
  "regime": "PUBLIC",
  "code": "x",
  "phase": "MONO",
  "longitude": "14.25146769",
  "latitude": "4.40815988"
 },
 {
  "nom": "TRYPANO",
  "depart": "D31 BATOURI",
  "tension": 30,
  "type": "H61",
  "puissance": 160,
  "regime": "PUBLIC",
  "code": "x",
  "phase": "TRI",
  "longitude": "14.36860090",
  "latitude": "4.44621110"
 },
 {
  "nom": "KAMBAMIERI",
  "depart": "D31 BATOURI",
  "tension": 17,
  "type": "H61",
  "puissance": 25,
  "regime": "x",
  "code": "x",
  "phase": "MONO",
  "longitude": "13.96969902",
  "latitude": "4.24041628"
 },
 {
  "nom": "LYCEE DE MANDJOU",
  "depart": "D31 BATOURI",
  "tension": 30,
  "type": "H61",
  "puissance": 160,
  "regime": "PUBLIC",
  "code": "x",
  "phase": "TRI",
  "longitude": "13.74813071",
  "latitude": "4.59354483"
 },
 {
  "nom": "IHS SAMBI",
  "depart": "D31 BATOURI",
  "tension": 17,
  "type": "H61",
  "puissance": 25,
  "regime": "PRIVE",
  "code": "x",
  "phase": "MONO",
  "longitude": "13.79121954",
  "latitude": "4.57017867"
 },
 {
  "nom": "MANDJOU",
  "depart": "D31 BATOURI",
  "tension": 30,
  "type": "H61",
  "puissance": 250,
  "regime": "PUBLIC",
  "code": "x",
  "phase": "TRI",
  "longitude": "13.73907661",
  "latitude": "4.59272958"
 },
 {
  "nom": "CTC",
  "depart": "D31 BATOURI",
  "tension": 30,
  "type": "H61",
  "puissance": 100,
  "regime": "PUBLIC",
  "code": "x",
  "phase": "TRI",
  "longitude": "14.36778458",
  "latitude": "4.45704115"
 },
 {
  "nom": "NKOUNTE",
  "depart": "D31 BATOURI",
  "tension": 17,
  "type": "H61",
  "puissance": 25,
  "regime": "x",
  "code": "x",
  "phase": "MONO",
  "longitude": "13.81276190",
  "latitude": "4.69348333"
 },
 {
  "nom": "GADJI",
  "depart": "D31 BATOURI",
  "tension": 17,
  "type": "H61",
  "puissance": 25,
  "regime": "PUBLIC",
  "code": "x",
  "phase": "MONO",
  "longitude": "14.05220444",
  "latitude": "4.48383996"
 },
 {
  "nom": "DIMAKO 2",
  "depart": "D31 BATOURI",
  "tension": 17,
  "type": "H61",
  "puissance": 25,
  "regime": "x",
  "code": "x",
  "phase": "MONO",
  "longitude": "14.15927759",
  "latitude": "4.36768355"
 },
 {
  "nom": "PTT BATOURI",
  "depart": "D31 BATOURI",
  "tension": 30,
  "type": "H61",
  "puissance": 50,
  "regime": "PRIVE",
  "code": "x",
  "phase": "TRI",
  "longitude": "14.36575104",
  "latitude": "4.43631179"
 },
 {
  "nom": "KAMBELE 1",
  "depart": "D31 BATOURI",
  "tension": 17,
  "type": "H61",
  "puissance": 25,
  "regime": "PUBLIC",
  "code": "x",
  "phase": "MONO",
  "longitude": "14.39794015",
  "latitude": "4.46255473"
 },
 {
  "nom": "MONGONAM",
  "depart": "D31 BATOURI",
  "tension": 17,
  "type": "H61",
  "puissance": 25,
  "regime": "PUBLIC",
  "code": "x",
  "phase": "MONO",
  "longitude": "14.36531262",
  "latitude": "4.41846819"
 },
 {
  "nom": "MTN FIO",
  "depart": "D31 BATOURI",
  "tension": 17,
  "type": "H61",
  "puissance": 25,
  "regime": "PRIVE",
  "code": "x",
  "phase": "MONO",
  "longitude": "13.97695057",
  "latitude": "4.50448242"
 },
 {
  "nom": "IHS TIKONDI",
  "depart": "D31 BATOURI",
  "tension": 17,
  "type": "H61",
  "puissance": 25,
  "regime": "PRIVE",
  "code": "x",
  "phase": "MONO",
  "longitude": "14.14229215",
  "latitude": "4.46220678"
 },
 {
  "nom": "BANDONGOUE 2",
  "depart": "D31 BATOURI",
  "tension": 17,
  "type": "H61",
  "puissance": 25,
  "regime": "x",
  "code": "x",
  "phase": "MONO",
  "longitude": "14.19148363",
  "latitude": "4.39199323"
 },
 {
  "nom": "NGUINDI",
  "depart": "D31 BATOURI",
  "tension": 17,
  "type": "H61",
  "puissance": 25,
  "regime": "PUBLIC",
  "code": "x",
  "phase": "MONO",
  "longitude": "14.11254623",
  "latitude": "4.46288559"
 },
 {
  "nom": "Quartier administratif",
  "depart": "D31 BATOURI",
  "tension": 30,
  "type": "H61",
  "puissance": 160,
  "regime": "PUBLIC",
  "code": "x",
  "phase": "TRI",
  "longitude": "14.36191528",
  "latitude": "4.42378074"
 },
 {
  "nom": "MBAKOMBO 2",
  "depart": "D31 BATOURI",
  "tension": 17,
  "type": "H61",
  "puissance": 25,
  "regime": "x",
  "code": "x",
  "phase": "MONO",
  "longitude": "13.70655469",
  "latitude": "4.62955455"
 },
 {
  "nom": "TIKONDI 1",
  "depart": "D31 BATOURI",
  "tension": 17,
  "type": "H61",
  "puissance": 25,
  "regime": "PUBLIC",
  "code": "x",
  "phase": "MONO",
  "longitude": "14.13037492",
  "latitude": "4.46625839"
 },
 {
  "nom": "NGAMBOULA",
  "depart": "D31 BATOURI",
  "tension": 17,
  "type": "H61",
  "puissance": 25,
  "regime": "PUBLIC",
  "code": "x",
  "phase": "MONO",
  "longitude": "13.82888817",
  "latitude": "4.56904753"
 },
 {
  "nom": "GBAKOMBO 3",
  "depart": "D31 BATOURI",
  "tension": 17,
  "type": "H61",
  "puissance": 25,
  "regime": "x",
  "code": "x",
  "phase": "MONO",
  "longitude": "13.72795069",
  "latitude": "4.65030465"
 },
 {
  "nom": "COLLEGE BARRY",
  "depart": "D31 BATOURI",
  "tension": 30,
  "type": "H61",
  "puissance": 160,
  "regime": "PUBLIC",
  "code": "x",
  "phase": "TRI",
  "longitude": "14.35980919",
  "latitude": "4.43242029"
 },
 {
  "nom": "NGOUTOU",
  "depart": "D31 BATOURI",
  "tension": 17,
  "type": "H61",
  "puissance": 25,
  "regime": "x",
  "code": "x",
  "phase": "MONO",
  "longitude": "14.13229318",
  "latitude": "4.34276517"
 },
 {
  "nom": "12e Brim koume bonis",
  "depart": "D32 BELABO",
  "tension": 30,
  "type": "H61",
  "puissance": 160,
  "regime": "PRIVE",
  "code": "x",
  "phase": "TRI",
  "longitude": "13.62405956",
  "latitude": "4.56946224"
 },
 {
  "nom": "EKOUNOU",
  "depart": "D32 BELABO",
  "tension": 30,
  "type": "H61",
  "puissance": 160,
  "regime": "PUBLIC",
  "code": "x",
  "phase": "TRI",
  "longitude": "13.65133642",
  "latitude": "4.57385151"
 },
 {
  "nom": "Andom 2",
  "depart": "D32 BELABO",
  "tension": 17,
  "type": "H61",
  "puissance": 25,
  "regime": "PUBLIC",
  "code": "x",
  "phase": "MONO",
  "longitude": "13.41506131",
  "latitude": "4.62881489"
 },
 {
  "nom": "Pharmacie",
  "depart": "D32 BELABO",
  "tension": 30,
  "type": "H61",
  "puissance": 160,
  "regime": "PUBLIC",
  "code": "x",
  "phase": "TRI",
  "longitude": "13.29032658",
  "latitude": "4.91854467"
 },
 {
  "nom": "Andom 2 mont Sinae",
  "depart": "D32 BELABO",
  "tension": 17,
  "type": "H61",
  "puissance": 25,
  "regime": "PUBLIC",
  "code": "x",
  "phase": "MONO",
  "longitude": "13.41616194",
  "latitude": "4.64230820"
 },
 {
  "nom": "Nio 2",
  "depart": "D32 BELABO",
  "tension": 17,
  "type": "H61",
  "puissance": 25,
  "regime": "PUBLIC",
  "code": "x",
  "phase": "MONO",
  "longitude": "12.88418161",
  "latitude": "4.56103237"
 },
 {
  "nom": "Auberge du port 2",
  "depart": "D32 BELABO",
  "tension": 30,
  "type": "H61",
  "puissance": 160,
  "regime": "PUBLIC",
  "code": "x",
  "phase": "TRI",
  "longitude": "13.29149861",
  "latitude": "4.92153504"
 },
 {
  "nom": "Cetic Minta",
  "depart": "D32 BELABO",
  "tension": 30,
  "type": "H61",
  "puissance": 100,
  "regime": "PRIVE",
  "code": "x",
  "phase": "TRI",
  "longitude": "12.81678617",
  "latitude": "4.55630741"
 },
 {
  "nom": "SCDP",
  "depart": "D32 BELABO",
  "tension": 30,
  "type": "H61",
  "puissance": 160,
  "regime": "PRIVE",
  "code": "x",
  "phase": "TRI",
  "longitude": "13.29033765",
  "latitude": "4.92607078"
 },
 {
  "nom": "Soeur Ndoumbi",
  "depart": "D32 BELABO",
  "tension": 30,
  "type": "H61",
  "puissance": 100,
  "regime": "PUBLIC",
  "code": "x",
  "phase": "TRI",
  "longitude": "13.56520378",
  "latitude": "4.56108102"
 },
 {
  "nom": "MBANG1",
  "depart": "D32 BELABO",
  "tension": 17,
  "type": "H61",
  "puissance": 25,
  "regime": "x",
  "code": "x",
  "phase": "MONO",
  "longitude": "13.03288635",
  "latitude": "4.55093959"
 },
 {
  "nom": "YANDA 3",
  "depart": "D32 BELABO",
  "tension": 17,
  "type": "H61",
  "puissance": 25,
  "regime": "x",
  "code": "x",
  "phase": "MONO",
  "longitude": "13.41643668",
  "latitude": "4.59806196"
 },
 {
  "nom": "KOMBE",
  "depart": "D32 BELABO",
  "tension": 17,
  "type": "H61",
  "puissance": 25,
  "regime": "PUBLIC",
  "code": "x",
  "phase": "MONO",
  "longitude": "13.32438606",
  "latitude": "4.57384074"
 },
 {
  "nom": "ADEMGOLAT",
  "depart": "D32 BELABO",
  "tension": 17,
  "type": "H61",
  "puissance": 25,
  "regime": "x",
  "code": "x",
  "phase": "MONO",
  "longitude": "12.89344871",
  "latitude": "4.38947480"
 },
 {
  "nom": "MISSION CATHOLIQUE",
  "depart": "D32 BELABO",
  "tension": 30,
  "type": "H61",
  "puissance": 160,
  "regime": "PUBLIC",
  "code": "x",
  "phase": "TRI",
  "longitude": "12.82426575",
  "latitude": "4.56178345"
 },
 {
  "nom": "IHS DJANGANE",
  "depart": "D32 BELABO",
  "tension": 17,
  "type": "H61",
  "puissance": 25,
  "regime": "PRIVE",
  "code": "x",
  "phase": "MONO",
  "longitude": "13.35785525",
  "latitude": "4.83683406"
 },
 {
  "nom": "EKANG",
  "depart": "D32 BELABO",
  "tension": 17,
  "type": "H61",
  "puissance": 25,
  "regime": "PUBLIC",
  "code": "x",
  "phase": "MONO",
  "longitude": "13.18293494",
  "latitude": "4.59965653"
 },
 {
  "nom": "BONIS",
  "depart": "D32 BELABO",
  "tension": 30,
  "type": "H61",
  "puissance": 100,
  "regime": "PUBLIC",
  "code": "x",
  "phase": "TRI",
  "longitude": "13.61454866",
  "latitude": "4.55199654"
 },
 {
  "nom": "NDEMBA 2",
  "depart": "D32 BELABO",
  "tension": 17,
  "type": "H61",
  "puissance": 25,
  "regime": "PUBLIC",
  "code": "x",
  "phase": "MONO",
  "longitude": "13.40858464",
  "latitude": "4.72435787"
 },
 {
  "nom": "MBETH 2",
  "depart": "D32 BELABO",
  "tension": 17,
  "type": "H61",
  "puissance": 25,
  "regime": "PUBLIC",
  "code": "x",
  "phase": "MONO",
  "longitude": "13.46607398",
  "latitude": "4.56466719"
 },
 {
  "nom": "DONGO",
  "depart": "D32 BELABO",
  "tension": 17,
  "type": "H61",
  "puissance": 25,
  "regime": "PUBLIC",
  "code": "x",
  "phase": "MONO",
  "longitude": "13.40680483",
  "latitude": "4.71200512"
 },
 {
  "nom": "Ndoumbi 2",
  "depart": "D32 BELABO",
  "tension": 30,
  "type": "H61",
  "puissance": 160,
  "regime": "PUBLIC",
  "code": "x",
  "phase": "TRI",
  "longitude": "13.59003708",
  "latitude": "4.56254088"
 },
 {
  "nom": "SCIERIE NGWEKONG",
  "depart": "D32 BELABO",
  "tension": 30,
  "type": "H61",
  "puissance": 100,
  "regime": "PRIVE",
  "code": "x",
  "phase": "TRI",
  "longitude": "13.51011045",
  "latitude": "4.56988085"
 },
 {
  "nom": "MEBA 2",
  "depart": "D32 BELABO",
  "tension": 17,
  "type": "H61",
  "puissance": 25,
  "regime": "PUBLIC",
  "code": "x",
  "phase": "MONO",
  "longitude": "12.98101454",
  "latitude": "4.61536329"
 },
 {
  "nom": "AZONKOT",
  "depart": "D32 BELABO",
  "tension": 17,
  "type": "H61",
  "puissance": 25,
  "regime": "x",
  "code": "x",
  "phase": "MONO",
  "longitude": "12.88490076",
  "latitude": "4.39581046"
 },
 {
  "nom": "MBEL",
  "depart": "D32 BELABO",
  "tension": 17,
  "type": "H61",
  "puissance": 25,
  "regime": "x",
  "code": "x",
  "phase": "MONO",
  "longitude": "13.06850319",
  "latitude": "4.51410478"
 },
 {
  "nom": "NIKA",
  "depart": "D32 BELABO",
  "tension": 17,
  "type": "H61",
  "puissance": 25,
  "regime": "PUBLIC",
  "code": "x",
  "phase": "MONO",
  "longitude": "13.21724241",
  "latitude": "4.59631960"
 },
 {
  "nom": "ADEMGOLAT 2",
  "depart": "D32 BELABO",
  "tension": 17,
  "type": "H61",
  "puissance": 25,
  "regime": "x",
  "code": "x",
  "phase": "MONO",
  "longitude": "12.88943484",
  "latitude": "4.39116551"
 },
 {
  "nom": "BADOUMA 1",
  "depart": "D32 BELABO",
  "tension": 17,
  "type": "H61",
  "puissance": 25,
  "regime": "x",
  "code": "x",
  "phase": "MONO",
  "longitude": "12.98933351",
  "latitude": "4.36081669"
 },
 {
  "nom": "KAK3",
  "depart": "D32 BELABO",
  "tension": 17,
  "type": "H61",
  "puissance": 25,
  "regime": "PUBLIC",
  "code": "x",
  "phase": "MONO",
  "longitude": "12.97787819",
  "latitude": "4.52924443"
 },
 {
  "nom": "NDIANG VILLE",
  "depart": "D32 BELABO",
  "tension": 30,
  "type": "H61",
  "puissance": 100,
  "regime": "PUBLIC",
  "code": "x",
  "phase": "TRI",
  "longitude": "13.34724456",
  "latitude": "4.57933621"
 },
 {
  "nom": "EBAKA",
  "depart": "D32 BELABO",
  "tension": 17,
  "type": "H61",
  "puissance": 25,
  "regime": "PUBLIC",
  "code": "x",
  "phase": "MONO",
  "longitude": "13.30638321",
  "latitude": "4.94237415"
 },
 {
  "nom": "MBETH DEPUTE",
  "depart": "D32 BELABO",
  "tension": 30,
  "type": "H61",
  "puissance": 50,
  "regime": "PUBLIC",
  "code": "x",
  "phase": "TRI",
  "longitude": "13.03346342",
  "latitude": "4.60704677"
 },
 {
  "nom": "MOUNDI",
  "depart": "D32 BELABO",
  "tension": 17,
  "type": "H61",
  "puissance": 25,
  "regime": "PUBLIC",
  "code": "x",
  "phase": "MONO",
  "longitude": "13.48122138",
  "latitude": "4.56853911"
 },
 {
  "nom": "MEBA 1",
  "depart": "D32 BELABO",
  "tension": 17,
  "type": "H61",
  "puissance": 25,
  "regime": "x",
  "code": "x",
  "phase": "MONO",
  "longitude": "12.99277742",
  "latitude": "4.61938466"
 },
 {
  "nom": "NGWEKONG 1",
  "depart": "D32 BELABO",
  "tension": 17,
  "type": "H61",
  "puissance": 25,
  "regime": "PUBLIC",
  "code": "x",
  "phase": "MONO",
  "longitude": "13.51641789",
  "latitude": "4.56510192"
 },
 {
  "nom": "AFRIQUE DU SUD",
  "depart": "D32 BELABO",
  "tension": 30,
  "type": "H61",
  "puissance": 160,
  "regime": "PUBLIC",
  "code": "x",
  "phase": "TRI",
  "longitude": "13.28965097",
  "latitude": "4.92801529"
 },
 {
  "nom": "KANDA",
  "depart": "D32 BELABO",
  "tension": 17,
  "type": "H61",
  "puissance": 25,
  "regime": "x",
  "code": "x",
  "phase": "MONO",
  "longitude": "13.37742308",
  "latitude": "4.57966331"
 },
 {
  "nom": "IHS BELABO",
  "depart": "D32 BELABO",
  "tension": 30,
  "type": "H61",
  "puissance": 160,
  "regime": "PUBLIC",
  "code": "x",
  "phase": "TRI",
  "longitude": "13.29866744",
  "latitude": "4.90839477"
 },
 {
  "nom": "NGUELEMEDOUKA",
  "depart": "D32 BELABO",
  "tension": 17,
  "type": "H61",
  "puissance": 25,
  "regime": "x",
  "code": "x",
  "phase": "MONO",
  "longitude": "12.92951663",
  "latitude": "4.37399549"
 },
 {
  "nom": "BOUAM",
  "depart": "D32 BELABO",
  "tension": 30,
  "type": "H61",
  "puissance": 160,
  "regime": "PUBLIC",
  "code": "x",
  "phase": "TRI",
  "longitude": "13.43582852",
  "latitude": "4.56844050"
 },
 {
  "nom": "Ngwekong 2",
  "depart": "D32 BELABO",
  "tension": 17,
  "type": "H61",
  "puissance": 25,
  "regime": "PUBLIC",
  "code": "x",
  "phase": "MONO",
  "longitude": "13.49664832",
  "latitude": "4.56947228"
 },
 {
  "nom": "NDEMBA 1",
  "depart": "D32 BELABO",
  "tension": 17,
  "type": "H61",
  "puissance": 25,
  "regime": "PUBLIC",
  "code": "x",
  "phase": "MONO",
  "longitude": "13.36285449",
  "latitude": "4.81117396"
 },
 {
  "nom": "OULDIKI 1",
  "depart": "D32 BELABO",
  "tension": 17,
  "type": "H61",
  "puissance": 25,
  "regime": "x",
  "code": "x",
  "phase": "MONO",
  "longitude": "13.07708162",
  "latitude": "4.35845512"
 },
 {
  "nom": "NIO",
  "depart": "D32 BELABO",
  "tension": 30,
  "type": "H61",
  "puissance": 100,
  "regime": "PUBLIC",
  "code": "x",
  "phase": "TRI",
  "longitude": "12.88634008",
  "latitude": "4.56181243"
 },
 {
  "nom": "CSPH",
  "depart": "D32 BELABO",
  "tension": 30,
  "type": "H59",
  "puissance": 400,
  "regime": "PRIVE",
  "code": "x",
  "phase": "TRI",
  "longitude": "13.58793470",
  "latitude": "4.56290551"
 },
 {
  "nom": "NGUEN",
  "depart": "D32 BELABO",
  "tension": 17,
  "type": "H61",
  "puissance": 25,
  "regime": "PUBLIC",
  "code": "x",
  "phase": "MONO",
  "longitude": "13.17220054",
  "latitude": "4.60041096"
 },
 {
  "nom": "MINTA CENTRE",
  "depart": "D32 BELABO",
  "tension": 30,
  "type": "H61",
  "puissance": 160,
  "regime": "PUBLIC",
  "code": "x",
  "phase": "TRI",
  "longitude": "12.83335895",
  "latitude": "4.55855589"
 },
 {
  "nom": "MBANG 1",
  "depart": "D32 BELABO",
  "tension": 17,
  "type": "H61",
  "puissance": 25,
  "regime": "PUBLIC",
  "code": "x",
  "phase": "MONO",
  "longitude": "13.33251737",
  "latitude": "4.58657980"
 },
 {
  "nom": "EKAK",
  "depart": "D32 BELABO",
  "tension": 17,
  "type": "H61",
  "puissance": 25,
  "regime": "PUBLIC",
  "code": "x",
  "phase": "MONO",
  "longitude": "12.85707663",
  "latitude": "4.54884436"
 },
 {
  "nom": "OULDIKI 2",
  "depart": "D32 BELABO",
  "tension": 17,
  "type": "H61",
  "puissance": 25,
  "regime": "x",
  "code": "x",
  "phase": "MONO",
  "longitude": "13.05344668",
  "latitude": "4.36333833"
 },
 {
  "nom": "NGUELEMEDOUKA LYCEE CLASSIQUE",
  "depart": "D32 BELABO",
  "tension": 30,
  "type": "H61",
  "puissance": 100,
  "regime": "PUBLIC",
  "code": "x",
  "phase": "TRI",
  "longitude": "12.91830788",
  "latitude": "4.39109721"
 },
 {
  "nom": "VELA 1",
  "depart": "D32 BELABO",
  "tension": 17,
  "type": "H61",
  "puissance": 25,
  "regime": "x",
  "code": "x",
  "phase": "MONO",
  "longitude": "12.79104896",
  "latitude": "4.69280685"
 },
 {
  "nom": "NBANGHAKOU",
  "depart": "D32 BELABO",
  "tension": 17,
  "type": "H61",
  "puissance": 25,
  "regime": "x",
  "code": "x",
  "phase": "MONO",
  "longitude": "13.03596819",
  "latitude": "4.35933995"
 },
 {
  "nom": "KARBAN",
  "depart": "D32 BELABO",
  "tension": 17,
  "type": "H61",
  "puissance": 25,
  "regime": "PUBLIC",
  "code": "x",
  "phase": "MONO",
  "longitude": "12.94219874",
  "latitude": "4.58530175"
 },
 {
  "nom": "BIKA",
  "depart": "D32 BELABO",
  "tension": 17,
  "type": "H61",
  "puissance": 25,
  "regime": "PUBLIC",
  "code": "x",
  "phase": "MONO",
  "longitude": "13.00947267",
  "latitude": "4.56730127"
 },
 {
  "nom": "ENDOME",
  "depart": "D32 BELABO",
  "tension": 17,
  "type": "H61",
  "puissance": 25,
  "regime": "x",
  "code": "x",
  "phase": "MONO",
  "longitude": "13.03093902",
  "latitude": "4.71627150"
 },
 {
  "nom": "MTN BOUAM",
  "depart": "D32 BELABO",
  "tension": 17,
  "type": "H61",
  "puissance": 25,
  "regime": "PRIVE",
  "code": "x",
  "phase": "MONO",
  "longitude": "13.43583555",
  "latitude": "4.57026742"
 },
 {
  "nom": "CENTRE VILLE",
  "depart": "D32 BELABO",
  "tension": 30,
  "type": "H61",
  "puissance": 100,
  "regime": "PUBLIC",
  "code": "x",
  "phase": "TRI",
  "longitude": "12.92448084",
  "latitude": "4.39156589"
 },
 {
  "nom": "Auberge du port 1",
  "depart": "D32 BELABO",
  "tension": 30,
  "type": "H61",
  "puissance": 250,
  "regime": "PUBLIC",
  "code": "x",
  "phase": "TRI",
  "longitude": "13.29128063",
  "latitude": "4.92147302"
 },
 {
  "nom": "CETIC DIANG",
  "depart": "D32 BELABO",
  "tension": 30,
  "type": "H61",
  "puissance": 160,
  "regime": "PRIVE",
  "code": "x",
  "phase": "TRI",
  "longitude": "13.35276523",
  "latitude": "4.56454769"
 },
 {
  "nom": "DJENDE 1",
  "depart": "D32 BELABO",
  "tension": 17,
  "type": "H61",
  "puissance": 25,
  "regime": "x",
  "code": "x",
  "phase": "MONO",
  "longitude": "13.00243887",
  "latitude": "4.35915501"
 },
 {
  "nom": "ANDOM",
  "depart": "D32 BELABO",
  "tension": 17,
  "type": "H61",
  "puissance": 25,
  "regime": "PUBLIC",
  "code": "x",
  "phase": "MONO",
  "longitude": "13.26085531",
  "latitude": "4.58064992"
 },
 {
  "nom": "EBAKA 2",
  "depart": "D32 BELABO",
  "tension": 30,
  "type": "H61",
  "puissance": 160,
  "regime": "PUBLIC",
  "code": "x",
  "phase": "TRI",
  "longitude": "13.29440365",
  "latitude": "4.93316188"
 },
 {
  "nom": "NKOAMBANG 1",
  "depart": "D32 BELABO",
  "tension": 17,
  "type": "H61",
  "puissance": 25,
  "regime": "x",
  "code": "x",
  "phase": "MONO",
  "longitude": "12.96750527",
  "latitude": "4.35488522"
 },
 {
  "nom": "SAMBA",
  "depart": "D32 BELABO",
  "tension": 17,
  "type": "H61",
  "puissance": 25,
  "regime": "PUBLIC",
  "code": "x",
  "phase": "MONO",
  "longitude": "12.96420023",
  "latitude": "4.41448962"
 },
 {
  "nom": "TSANG",
  "depart": "D32 BELABO",
  "tension": 17,
  "type": "H61",
  "puissance": 25,
  "regime": "PUBLIC",
  "code": "x",
  "phase": "MONO",
  "longitude": "13.00633271",
  "latitude": "4.60918815"
 },
 {
  "nom": "IHS NGUEN",
  "depart": "D32 BELABO",
  "tension": 17,
  "type": "H61",
  "puissance": 25,
  "regime": "PRIVE",
  "code": "x",
  "phase": "MONO",
  "longitude": "13.13027546",
  "latitude": "4.61037514"
 },
 {
  "nom": "DOUMAINTANG",
  "depart": "D32 BELABO",
  "tension": 17,
  "type": "H61",
  "puissance": 25,
  "regime": "x",
  "code": "x",
  "phase": "MONO",
  "longitude": "13.10361385",
  "latitude": "4.34088153"
 },
 {
  "nom": "COSMADY",
  "depart": "D32 BELABO",
  "tension": 17,
  "type": "H61",
  "puissance": 25,
  "regime": "x",
  "code": "x",
  "phase": "MONO",
  "longitude": "13.06748263",
  "latitude": "4.49676042"
 },
 {
  "nom": "PTT MEBA",
  "depart": "D32 BELABO",
  "tension": 17,
  "type": "H61",
  "puissance": 25,
  "regime": "PRIVE",
  "code": "x",
  "phase": "MONO",
  "longitude": "12.98771052",
  "latitude": "4.62353447"
 },
 {
  "nom": "SOUS PREFECTURE BELABO",
  "depart": "D32 BELABO",
  "tension": 30,
  "type": "H61",
  "puissance": 160,
  "regime": "PUBLIC",
  "code": "x",
  "phase": "TRI",
  "longitude": "13.29355214",
  "latitude": "4.91592170"
 },
 {
  "nom": "DJANGANE",
  "depart": "D32 BELABO",
  "tension": 17,
  "type": "H61",
  "puissance": 25,
  "regime": "PUBLIC",
  "code": "x",
  "phase": "MONO",
  "longitude": "13.35696915",
  "latitude": "4.83642021"
 },
 {
  "nom": "YANDA 1",
  "depart": "D32 BELABO",
  "tension": 17,
  "type": "H61",
  "puissance": 25,
  "regime": "PUBLIC",
  "code": "x",
  "phase": "MONO",
  "longitude": "13.42280752",
  "latitude": "4.56472138"
 },
 {
  "nom": "MISSION CATHOLIQUE",
  "depart": "D32 BELABO",
  "tension": 30,
  "type": "H61",
  "puissance": 100,
  "regime": "PUBLIC",
  "code": "x",
  "phase": "TRI",
  "longitude": "12.93140960",
  "latitude": "4.38464811"
 },
 {
  "nom": "LENDE",
  "depart": "D32 BELABO",
  "tension": 17,
  "type": "H61",
  "puissance": 25,
  "regime": "x",
  "code": "x",
  "phase": "MONO",
  "longitude": "12.89567672",
  "latitude": "4.38604411"
 },
 {
  "nom": "MINKOLONG",
  "depart": "D32 BELABO",
  "tension": 17,
  "type": "H61",
  "puissance": 25,
  "regime": "PUBLIC",
  "code": "x",
  "phase": "MONO",
  "longitude": "13.28283672",
  "latitude": "4.57193957"
 },
 {
  "nom": "VELA 2",
  "depart": "D32 BELABO",
  "tension": 17,
  "type": "H61",
  "puissance": 25,
  "regime": "x",
  "code": "x",
  "phase": "MONO",
  "longitude": "12.82305256",
  "latitude": "4.71467689"
 },
 {
  "nom": "NDOUMBA KAMGA",
  "depart": "D32 BELABO",
  "tension": 17,
  "type": "H61",
  "puissance": 25,
  "regime": "PUBLIC",
  "code": "x",
  "phase": "MONO",
  "longitude": "13.25115318",
  "latitude": "4.89604422"
 },
 {
  "nom": "MADJIME",
  "depart": "D32 BELABO",
  "tension": 17,
  "type": "H61",
  "puissance": 25,
  "regime": "x",
  "code": "x",
  "phase": "MONO",
  "longitude": "13.01995815",
  "latitude": "4.35108160"
 },
 {
  "nom": "YANDA 2",
  "depart": "D32 BELABO",
  "tension": 17,
  "type": "H61",
  "puissance": 25,
  "regime": "x",
  "code": "x",
  "phase": "MONO",
  "longitude": "13.40389854",
  "latitude": "4.57129946"
 },
 {
  "nom": "YAYONG",
  "depart": "D32 BELABO",
  "tension": 17,
  "type": "H61",
  "puissance": 25,
  "regime": "PUBLIC",
  "code": "x",
  "phase": "MONO",
  "longitude": "12.84848786",
  "latitude": "4.54911461"
 },
 {
  "nom": "MBETH",
  "depart": "D32 BELABO",
  "tension": 17,
  "type": "H61",
  "puissance": 25,
  "regime": "PUBLIC",
  "code": "x",
  "phase": "MONO",
  "longitude": "13.01888285",
  "latitude": "4.60845159"
 },
 {
  "nom": "Camp SIC 1",
  "depart": "D12 BERTOUA",
  "tension": 15,
  "type": "H61",
  "puissance": 100,
  "regime": "PUBLIC",
  "code": "x",
  "phase": "TRI",
  "longitude": "13.67323829",
  "latitude": "4.58347706"
 },
 {
  "nom": "TRAVAUX PUBLICS",
  "depart": "D11 BERTOUA",
  "tension": 15,
  "type": "H61",
  "puissance": 160,
  "regime": "x",
  "code": "x",
  "phase": "TRI",
  "longitude": "13.68809669",
  "latitude": "4.58751500"
 },
 {
  "nom": "YADEME",
  "depart": "D11 BERTOUA",
  "tension": 15,
  "type": "H61",
  "puissance": 320,
  "regime": "PUBLIC",
  "code": "x",
  "phase": "TRI",
  "longitude": "13.69063333",
  "latitude": "4.57661496"
 },
 {
  "nom": "MAGZI",
  "depart": "D12 BERTOUA",
  "tension": 15,
  "type": "H59",
  "puissance": 400,
  "regime": "x",
  "code": "x",
  "phase": "TRI",
  "longitude": "13.64547284",
  "latitude": "4.55115695"
 }
]
}